name,province,district_city,kab_kota,country,coordinates_latitude,coordinates_longitude,current_ts,current_condition,current_humidity
Banda Aceh,Aceh,Kota Banda Aceh,Banda Aceh,Indonesia,5.54167,95.33333,18/03/2020 05:00,Broken clouds,56
Langsa,Aceh,Kota Langsa,Langsa,Indonesia,4.4683,97.9683,18/03/2020 16:00,Broken clouds,56
Lhokseumawe,Aceh,Kota Lhokseumawe,Lhokseumawe,Indonesia,5.1801,97.1507,18/03/2020 16:00,Rain,66
Sabang,Aceh,Kota Sabang,Sabang,Indonesia,5.88969,95.31644,18/03/2020 16:00,Broken clouds,74
Meulaboh,Aceh,Kabupaten Aceh Barat,Aceh Barat,Indonesia,4.14402,96.12664,18/03/2020 16:00,Scattered clouds,68
Blangpidie,Aceh,Kabupaten Aceh Barat Daya,Aceh Barat Daya,Indonesia,3.73956,96.83608,18/03/2020 16:00,Rain,74
Jantho,Aceh,Kabupaten Aceh Besar,Aceh Besar,Indonesia,5.3334,95.61336,18/03/2020 16:00,Broken clouds,56
Calang,Aceh,Kabupaten Aceh Jaya,Aceh Jaya,Indonesia,4.6306,95.5754,18/03/2020 16:00,Scattered clouds,69
Tapaktuan,Aceh,Kabupaten Aceh Selatan,Aceh Selatan,Indonesia,3.28625,97.16045,18/03/2020 16:00,Rain,74
Singkil,Aceh,Kabupaten Aceh Singkil,Aceh Singkil,Indonesia,2.2874,97.7884,18/03/2020 16:00,Rain,66
Karangbaru,Aceh,Kabupaten Aceh Tamiang,Aceh Tamiang,Indonesia,4.30563,98.02709,18/03/2020 16:00,Broken clouds,56
Takengon,Aceh,Kabupaten Aceh Tengah,Aceh Tengah,Indonesia,4.6212,96.8467,18/03/2020 16:00,Scattered clouds,49
Kutacane,Aceh,Kabupaten Aceh Tenggara,Aceh Tenggara,Indonesia,3.52211,97.79625,18/03/2020 16:00,Scattered clouds,57
Idi Rayeuk,Aceh,Kabupaten Aceh Timur,Aceh Timur,Indonesia,4.93037,97.79129,18/03/2020 16:00,Scattered clouds,68
Simpang Tiga Redelong,Aceh,Kabupaten Bener Meriah,Bener Meriah,Indonesia,4.722,96.8743,18/03/2020 16:00,Scattered clouds,49
Bireun,Aceh,Kabupaten Bireuen,Bireuen,Indonesia,5.203,96.7009,18/03/2020 16:00,Clear sky,69
Blangkejeren,Aceh,Kabupaten Gayo Lues,Gayo Lues,Indonesia,3.9971,97.3384,18/03/2020 16:00,Broken clouds,56
Suka Makmue,Aceh,Kabupaten Nagan Raya,Nagan Raya,Indonesia,4.00312,96.61762,18/03/2020 16:00,Broken clouds,66
Sigli,Aceh,Kabupaten Pidie,Pidie,Indonesia,5.3848,95.9609,18/03/2020 16:00,Few clouds,66
Sinabang,Aceh,Kabupaten Simeulue,Simeulue,Indonesia,2.4803,96.3801,18/03/2020 16:00,Rain,73
Mangupura,Bali,Kabupaten Badung,Badung,Indonesia,-8.54389,115.17,18/03/2020 16:00,Scattered clouds,84
Amlapura,Bali,Kabupaten Karangasem,Karangasem,Indonesia,-8.45,115.61667,18/03/2020 16:00,Scattered clouds,84
Semarapura,Bali,Kabupaten Klungkung,Klungkung,Indonesia,-8.5346,115.4022,18/03/2020 16:00,Scattered clouds,84
Denpasar,Bali,Kota Denpasar,Denpasar,Indonesia,-8.663225,115.19754,18/03/2020 17:00,Scattered clouds,84
Bangli,Bali,Kabupaten Bangli,Bangli,Indonesia,-8.4542,115.3545,18/03/2020 16:00,Scattered clouds,84
Singaraja,Bali,Kabupaten Buleleng,Buleleng,Indonesia,-8.112,115.08818,18/03/2020 16:00,Rain,73
Gianyar,Bali,Kabupaten Gianyar,Gianyar,Indonesia,-8.5435,115.3272,18/03/2020 16:00,Scattered clouds,84
Negara,Bali,Kabupaten Jembrana,Jembrana,Indonesia,-8.35694,114.61694,18/03/2020 16:00,Broken clouds,66
Tabanan,Bali,Kabupaten Tabanan,Tabanan,Indonesia,-8.5413,115.12522,18/03/2020 16:00,Scattered clouds,84
Serang,Banten,Kota Serang,Serang,Indonesia,-6.11528,106.15417,18/03/2020 16:00,Scattered clouds,83
Tangerang,Banten,Kota Tangerang,Tangerang,Indonesia,-6.17806,106.63,18/03/2020 16:00,Scattered clouds,83
South Tangerang,Banten,Kota Tangerang Selatan,Tangerang Selatan,Indonesia,-6.28862,106.71789,18/03/2020 17:00,Scattered clouds,83
Rangkasbitung,Banten,Kabupaten Lebak,Lebak,Indonesia,-6.3591,106.2494,18/03/2020 16:00,Scattered clouds,83
Pandeglang,Banten,Kabupaten Pandeglang,Pandeglang,Indonesia,-6.3084,106.1067,18/03/2020 16:00,Scattered clouds,83
Ciruas,Banten,Kabupaten Serang,Serang,Indonesia,-6.125,106.23278,18/03/2020 16:00,Scattered clouds,83
Tigaraksa,Banten,Kabupaten Tangerang,Tangerang,Indonesia,-6.22806,106.51389,18/03/2020 16:00,Scattered clouds,83
Bengkulu,Bengkulu,Kota Bengkulu,Bengkulu,Indonesia,-3.80044,102.26554,18/03/2020 16:00,Rain,93
Manna,Bengkulu,Kabupaten Bengkulu Selatan,Bengkulu Selatan,Indonesia,-4.4651,102.90386,18/03/2020 16:00,Rain,92
Karang Tinggi,Bengkulu,Kabupaten Bengkulu Tengah,Bengkulu Tengah,Indonesia,-3.75,102.4225,18/03/2020 16:00,Rain,93
Argamakmur,Bengkulu,Kabupaten Bengkulu Utara,Bengkulu Utara,Indonesia,-3.4232,102.1891,18/03/2020 16:00,Rain,84
Bintuhan,Bengkulu,Kabupaten Kaur,Kaur,Indonesia,-4.79371,103.34836,18/03/2020 16:00,Rain,73
Kepahiang,Bengkulu,Kabupaten Kepahiang,Kepahiang,Indonesia,-3.6455,102.5712,18/03/2020 16:00,Rain,99
Mukomuko,Bengkulu,Kabupaten Mukomuko,Mukomuko,Indonesia,-2.5689,101.1118,18/03/2020 16:00,Rain,76
Curup,Bengkulu,Kabupaten Rejang Lebong,Rejang Lebong,Indonesia,-3.4703,102.5207,18/03/2020 16:00,Rain,99
Tais,Bengkulu,Kabupaten Seluma,Seluma,Indonesia,-4.07543,102.57739,18/03/2020 16:00,Rain,93
Jakarta,DKI Jakarta,Jakarta,Jakarta,Indonesia,-6.236704,106.79324,18/03/2020 17:00,Scattered clouds,83
Tilamuta,Gorontalo,Kabupaten Boalemo,Boalemo,Indonesia,0.5273,122.3463,18/03/2020 16:00,Rain,68
Limboto,Gorontalo,Kabupaten Gorontalo,Gorontalo,Indonesia,0.627,122.9778,18/03/2020 16:00,Rain,75
Gorontalo,Gorontalo,Kota Gorontalo,Gorontalo,Indonesia,0.5375,123.0625,18/03/2020 16:00,Rain,75
Siulak,Jambi,Kabupaten Kerinci,Kerinci,Indonesia,-1.94667,101.33417,18/03/2020 16:00,Rain,95
Jambi,Jambi,Kota Jambi,Jambi,Indonesia,-1.6,103.61667,18/03/2020 15:00,Rain,88
Sungai Penuh,Jambi,Kota Sungaipenuh,Sungaipenuh,Indonesia,-2.0561,101.3913,18/03/2020 16:00,Rain,95
Muara Bulian,Jambi,Kabupaten Batanghari,Batang hari,Indonesia,-1.71327,103.25902,18/03/2020 16:00,Rain,88
Muara Bungo,Jambi,Kabupaten Bungo,Bungo,Indonesia,-1.49018,102.1149,18/03/2020 16:00,Rain,63
Bangko,Jambi,Kabupaten Merangin,Merangin,Indonesia,-2.0796,102.2573,18/03/2020 16:00,Rain,77
Sengeti,Jambi,Kabupaten Muaro Jambi,Muaro Jambi,Indonesia,-1.4772,103.50765,18/03/2020 16:00,Rain,88
Sarolangun,Jambi,Kabupaten Sarolangun,Sarolangun,Indonesia,-2.3121,102.7271,18/03/2020 16:00,Rain,88
Kuala Tungkal,Jambi,Kabupaten Tanjung Jabung Barat,Tanjung Jabung Barat,Indonesia,-0.81623,103.46111,18/03/2020 16:00,Rain,75
Muara Sabak,Jambi,Kabupaten Tanjung Jabung Timur,Tanjung Jabung Timur,Indonesia,-1.13612,103.84987,18/03/2020 16:00,Scattered clouds,73
Muara Tebo,Jambi,Kabupaten Tebo,Tebo,Indonesia,-1.476,102.4435,18/03/2020 16:00,Rain,63
Pelabuhanratu,Jawa Barat,Kabupaten Sukabumi,Sukabumi,Indonesia,-6.9875,106.55139,18/03/2020 16:00,Rain,81
Bandung,Jawa Barat,Kota Bandung,Bandung,Indonesia,-6.92222,107.60694,18/03/2020 17:00,Rain,76
Banjar,Jawa Barat,Kota Banjar,Banjar,Indonesia,-7.1955,107.4313,18/03/2020 16:00,Rain,76
Bekasi,Jawa Barat,Kota Bekasi,Bekasi,Indonesia,-6.388776,106.913972,18/03/2020 17:00,Scattered clouds,83
Bogor,Jawa Barat,Kota Bogor,Bogor,Indonesia,-6.5971469,106.8060388,18/03/2020 15:00,Scattered clouds,83
Cimahi,Jawa Barat,Kota Cimahi,Cimahi,Indonesia,-6.87222,107.5425,18/03/2020 16:00,Rain,76
Cirebon,Jawa Barat,Kota Cirebon,Cirebon,Indonesia,-6.7063,108.557,18/03/2020 16:00,Broken clouds,66
Depok,Jawa Barat,Kota Depok,Depok,Indonesia,-6.4,106.81861,18/03/2020 05:00,Scattered clouds,83
Sukabumi,Jawa Barat,Kota Sukabumi,Sukabumi,Indonesia,-6.91806,106.92667,18/03/2020 16:00,Rain,85
Tasikmalaya,Jawa Barat,Kota Tasikmalaya,Tasikmalaya,Indonesia,-7.3274,108.2207,18/03/2020 16:00,Rain,88
Soreang,Jawa Barat,Kabupaten Bandung,Bandung,Indonesia,-7.03306,107.51833,18/03/2020 16:00,Rain,76
Ngamprah,Jawa Barat,Kabupaten Bandung Barat,Bandung Barat,Indonesia,-6.80361,107.27528,18/03/2020 16:00,Rain,76
Cikarang,Jawa Barat,Kabupaten Bekasi,Bekasi,Indonesia,-6.26111,107.15278,18/03/2020 16:00,Scattered clouds,83
Cibinong,Jawa Barat,Kabupaten Bogor,Bogor,Indonesia,-6.48167,106.85417,18/03/2020 16:00,Scattered clouds,83
Ciamis,Jawa Barat,Kabupaten Ciamis,Ciamis,Indonesia,-7.3257,108.3534,18/03/2020 16:00,Rain,89
Cianjur,Jawa Barat,Kabupaten Cianjur,Cianjur,Indonesia,-6.82222,107.13944,18/03/2020 16:00,Scattered clouds,78
Sumber,Jawa Barat,Kabupaten Cirebon,Cirebon,Indonesia,-6.76028,108.48306,18/03/2020 16:00,Rain,77
Indramayu,Jawa Barat,Kabupaten Indramayu,Indramayu,Indonesia,-6.32639,108.32,18/03/2020 16:00,Broken clouds,66
Karawang,Jawa Barat,Kabupaten Karawang,Karawang,Indonesia,-6.30333,107.30556,18/03/2020 16:00,Scattered clouds,78
Kuningan,Jawa Barat,Kabupaten Kuningan,Kuningan,Indonesia,-6.97583,108.48306,18/03/2020 16:00,Rain,77
Majalengka,Jawa Barat,Kabupaten Majalengka,Majalengka,Indonesia,-6.83611,108.22778,18/03/2020 16:00,Rain,86
Parigi,Jawa Barat,Kabupaten Pangandaran,Pangandaran,Indonesia,-7.7015,108.496,18/03/2020 16:00,Rain,89
Purwakarta,Jawa Barat,Kabupaten Purwakarta,Purwakarta,Indonesia,-6.55694,107.44333,18/03/2020 16:00,Scattered clouds,78
Subang,Jawa Barat,Kabupaten Subang,Subang,Indonesia,-7.1277,108.5283,18/03/2020 16:00,Rain,77
Sumedang,Jawa Barat,Kabupaten Sumedang,Sumedang,Indonesia,-6.85861,107.91639,18/03/2020 16:00,Rain,86
Singaparna,Jawa Barat,Kabupaten Tasikmalaya,Tasikmalaya,Indonesia,-7.3515,108.111,18/03/2020 16:00,Rain,88
Brebes,Jawa Tengah,Kabupaten Brebes,Brebes,Indonesia,-6.8691,109.0378,18/03/2020 16:00,Broken clouds,66
Mungkid,Jawa Tengah,Kabupaten Magelang,Magelang,Indonesia,-7.5925,110.21889,18/03/2020 16:00,Scattered clouds,74
Magelang,Jawa Tengah,Kota Magelang,Magelang,Indonesia,-7.47056,110.21778,18/03/2020 16:00,Scattered clouds,74
Pekalongan,Jawa Tengah,Kota Pekalongan,Pekalongan,Indonesia,-6.8886,109.6753,18/03/2020 16:00,Rain,71
Salatiga,Jawa Tengah,Kota Salatiga,Salatiga,Indonesia,-7.33194,110.49278,18/03/2020 16:00,Scattered clouds,74
Semarang,Jawa Tengah,Kota Semarang,Semarang,Indonesia,-6.99306,110.42083,18/03/2020 17:00,Scattered clouds,74
Surakarta,Jawa Tengah,Kota Surakarta,Surakarta,Indonesia,-7.55611,110.83167,18/03/2020 16:00,Rain,74
Tegal,Jawa Tengah,Kota Tegal,Tegal,Indonesia,-6.8694,109.1402,18/03/2020 16:00,Broken clouds,66
Banjarnegara,Jawa Tengah,Kabupaten Banjarnegara,Banjarnegara,Indonesia,-7.39611,109.69611,18/03/2020 16:00,Rain,92
Purwokerto,Jawa Tengah,Kabupaten Banyumas,Banyumas,Indonesia,-7.42139,109.23444,18/03/2020 16:00,Rain,89
Batang,Jawa Tengah,Kabupaten Batang,Batang,Indonesia,-6.4846,110.7083,18/03/2020 16:00,Scattered clouds,74
Blora,Jawa Tengah,Kabupaten Blora,Blora,Indonesia,-6.9698,111.4186,18/03/2020 16:00,Broken clouds,74
Boyolali,Jawa Tengah,Kabupaten Boyolali,Boyolali,Indonesia,-7.53306,110.59583,18/03/2020 16:00,Rain,74
Cilacap,Jawa Tengah,Kabupaten Cilacap,Cilacap,Indonesia,-7.72639,109.00944,18/03/2020 16:00,Rain,89
Demak,Jawa Tengah,Kabupaten Demak,Demak,Indonesia,-6.8909,110.6396,18/03/2020 16:00,Scattered clouds,74
Purwodadi,Jawa Tengah,Kabupaten Grobogan,Grobogan,Indonesia,-7.0868,110.9158,18/03/2020 16:00,Scattered clouds,74
Jepara,Jawa Tengah,Kabupaten Jepara,Jepara,Indonesia,-6.5924,110.671,18/03/2020 16:00,Scattered clouds,74
Karanganyar,Jawa Tengah,Kabupaten Karanganyar,Karanganyar,Indonesia,-7.59833,110.94444,18/03/2020 16:00,Rain,74
Kebumen,Jawa Tengah,Kabupaten Kebumen,Kebumen,Indonesia,-7.66861,109.65361,18/03/2020 16:00,Rain,92
Kendal,Jawa Tengah,Kabupaten Kendal,Kendal,Indonesia,-6.9213,110.2022,18/03/2020 16:00,Scattered clouds,74
Klaten,Jawa Tengah,Kabupaten Klaten,Klaten,Indonesia,-7.70583,110.60639,18/03/2020 16:00,Rain,74
Kudus,Jawa Tengah,Kabupaten Kudus,Kudus,Indonesia,-6.8048,110.8405,18/03/2020 16:00,Scattered clouds,74
Pati,Jawa Tengah,Kabupaten Pati,Pati,Indonesia,-6.7559,111.038,18/03/2020 16:00,Rain,73
Kajen,Jawa Tengah,Kabupaten Pekalongan,Pekalongan,Indonesia,-7.0324,109.5773,18/03/2020 16:00,Rain,71
Pemalang,Jawa Tengah,Kabupaten Pemalang,Pemalang,Indonesia,-6.89193,109.38263,18/03/2020 16:00,Rain,71
Purbalingga,Jawa Tengah,Kabupaten Purbalingga,Purbalingga,Indonesia,-7.38806,109.36389,18/03/2020 16:00,Rain,92
Purworejo,Jawa Tengah,Kabupaten Purworejo,Purworejo,Indonesia,-7.71139,110.01028,18/03/2020 16:00,Rain,95
Rembang,Jawa Tengah,Kabupaten Rembang,Rembang,Indonesia,-6.707,111.3498,18/03/2020 16:00,Broken clouds,69
Ungaran,Jawa Tengah,Kabupaten Semarang,Semarang,Indonesia,-7.13972,110.405,18/03/2020 16:00,Scattered clouds,74
Sragen,Jawa Tengah,Kabupaten Sragen,Sragen,Indonesia,-7.42639,111.02222,18/03/2020 16:00,Rain,74
Sukoharjo,Jawa Tengah,Kabupaten Sukoharjo,Sukoharjo,Indonesia,-7.6725,110.83806,18/03/2020 16:00,Rain,74
Slawi,Jawa Tengah,Kabupaten Tegal,Tegal,Indonesia,-6.9816,109.1407,18/03/2020 16:00,Broken clouds,66
Temanggung,Jawa Tengah,Kabupaten Temanggung,Temanggung,Indonesia,-7.31917,110.19278,18/03/2020 16:00,Scattered clouds,74
Wonogiri,Jawa Tengah,Kabupaten Wonogiri,Wonogiri,Indonesia,-7.81444,110.92056,18/03/2020 16:00,Rain,74
Wonosobo,Jawa Tengah,Kabupaten Wonosobo,Wonosobo,Indonesia,-7.35889,109.90306,18/03/2020 16:00,Scattered clouds,74
Ngasem,Jawa Timur,Kabupaten Kediri,Kediri,Indonesia,-7.80583,112.04083,18/03/2020 16:00,Rain,92
Caruban,Jawa Timur,Kabupaten Madiun,Madiun,Indonesia,-7.5447,111.6566,18/03/2020 16:00,Rain,86
Mojosari,Jawa Timur,Kabupaten Mojokerto,Mojokerto,Indonesia,-7.5194,112.5597,18/03/2020 16:00,Rain,83
Bangil,Jawa Timur,Kabupaten Pasuruan,Pasuruan,Indonesia,-7.59939,112.8186,18/03/2020 16:00,Rain,73
Batu,Jawa Timur,Kota Batu,Batu,Indonesia,-7.87,112.52833,18/03/2020 16:00,Rain,97
Blitar,Jawa Timur,Kota Blitar,Blitar,Indonesia,-8.0983,112.1681,18/03/2020 16:00,Rain,92
Kediri,Jawa Timur,Kota Kediri,Kediri,Indonesia,-7.81667,112.01667,18/03/2020 16:00,Rain,92
Madiun,Jawa Timur,Kota Madiun,Madiun,Indonesia,-7.6298,111.5239,18/03/2020 16:00,Rain,86
Malang,Jawa Timur,Kota Malang,Malang,Indonesia,-7.9797,112.6304,18/03/2020 05:00,Rain,97
Mojokerto,Jawa Timur,Kota Mojokerto,Mojokerto,Indonesia,-7.4664,112.4338,18/03/2020 16:00,Rain,83
Pasuruan,Jawa Timur,Kota Pasuruan,Pasuruan,Indonesia,-7.6453,112.9075,18/03/2020 16:00,Rain,73
Probolinggo,Jawa Timur,Kota Probolinggo,Probolinggo,Indonesia,-7.7543,113.2159,18/03/2020 16:00,Rain,94
Surabaya,Jawa Timur,Kota Surabaya,Surabaya,Indonesia,-7.2800904,112.7946058,18/03/2020 17:00,Rain,73
Bangkalan,Jawa Timur,Kabupaten Bangkalan,Bangkalan,Indonesia,-7.0455,112.7351,18/03/2020 16:00,Broken clouds,71
Banyuwangi,Jawa Timur,Kabupaten Banyuwangi,Banyuwangi,Indonesia,-8.2325,114.35755,18/03/2020 16:00,Rain,77
Bojonegoro,Jawa Timur,Kabupaten Bojonegoro,Bojonegoro,Indonesia,-7.1502,111.8817,18/03/2020 16:00,Broken clouds,73
Bondowoso,Jawa Timur,Kabupaten Bondowoso,Bondowoso,Indonesia,-7.91346,113.82145,18/03/2020 16:00,Rain,89
Gresik,Jawa Timur,Kabupaten Gresik,Gresik,Indonesia,-7.15389,112.65611,18/03/2020 16:00,Broken clouds,71
Jember,Jawa Timur,Kabupaten Jember,Jember,Indonesia,-8.17211,113.69953,18/03/2020 16:00,Rain,94
Jombang,Jawa Timur,Kabupaten Jombang,Jombang,Indonesia,-7.54595,112.23307,18/03/2020 16:00,Rain,85
Lamongan,Jawa Timur,Kabupaten Lamongan,Lamongan,Indonesia,-7.11667,112.41667,18/03/2020 16:00,Broken clouds,71
Lumajang,Jawa Timur,Kabupaten Lumajang,Lumajang,Indonesia,-8.1335,113.2248,18/03/2020 16:00,Rain,94
Magetan,Jawa Timur,Kabupaten Magetan,Magetan,Indonesia,-7.65667,111.33139,18/03/2020 16:00,Rain,74
Kepanjen,Jawa Timur,Kabupaten Malang,Malang,Indonesia,-8.1303,112.5727,18/03/2020 16:00,Rain,97
Nganjuk,Jawa Timur,Kabupaten Nganjuk,Nganjuk,Indonesia,-7.6051,111.9035,18/03/2020 16:00,Rain,85
Pacitan,Jawa Timur,Kabupaten Pacitan,Pacitan,Indonesia,-8.19389,111.10333,18/03/2020 16:00,Rain,91
Pamekasan,Jawa Timur,Kabupaten Pamekasan,Pamekasan,Indonesia,-7.1568,113.4746,18/03/2020 16:00,Rain,76
Ponorogo,Jawa Timur,Kabupaten Ponorogo,Ponorogo,Indonesia,-7.8685,111.462,18/03/2020 16:00,Rain,93
Kraksaan,Jawa Timur,Kabupaten Probolinggo,Probolinggo,Indonesia,-7.75845,113.39624,18/03/2020 16:00,Rain,94
Sampang,Jawa Timur,Kabupaten Sampang,Sampang,Indonesia,-7.1872,113.2394,18/03/2020 16:00,Rain,78
Sidoarjo,Jawa Timur,Kabupaten Sidoarjo,Sidoarjo,Indonesia,-7.4478,112.7183,18/03/2020 16:00,Rain,83
Situbondo,Jawa Timur,Kabupaten Situbondo,Situbondo,Indonesia,-7.70623,114.00976,18/03/2020 16:00,Broken clouds,70
Sumenep,Jawa Timur,Kabupaten Sumenep,Sumenep,Indonesia,-7.01667,113.86667,18/03/2020 16:00,Broken clouds,71
Trenggalek,Jawa Timur,Kabupaten Trenggalek,Trenggalek,Indonesia,-8.0764,111.70641,18/03/2020 16:00,Rain,93
Tuban,Jawa Timur,Kabupaten Tuban,Tuban,Indonesia,-6.8976,112.0649,18/03/2020 16:00,Broken clouds,73
Tulungagung,Jawa Timur,Kabupaten Tulungagung,Tulungagung,Indonesia,-8.0657,111.9025,18/03/2020 16:00,Rain,92
Singkawang,Kalimantan Barat,Kota Singkawang,Singkawang,Indonesia,0.90925,108.98463,18/03/2020 16:00,Rain,84
Bengkayang,Kalimantan Barat,Kabupaten Bengkayang,Bengkayang,Indonesia,0.83194,109.43589,18/03/2020 16:00,Rain,95
Putussibau,Kalimantan Barat,Kabupaten Kapuas Hulu,Kapuas Hulu,Indonesia,0.83333,112.93333,18/03/2020 16:00,Rain,78
Sukadana,Kalimantan Barat,Kabupaten Kayong Utara,Kayong Utara,Indonesia,-1.25,109.95,18/03/2020 16:00,Broken clouds,71
Ketapang,Kalimantan Barat,Kabupaten Ketapang,Ketapang,Indonesia,-1.83862,109.97728,18/03/2020 16:00,Broken clouds,73
Sungai Raya,Kalimantan Barat,Kabupaten Kubu Raya,Kubu Raya,Indonesia,0.7,108.9,18/03/2020 16:00,Rain,86
Ngabang,Kalimantan Barat,Kabupaten Landak,Landak,Indonesia,0.38333,109.95,18/03/2020 16:00,Rain,92
Nangah Pinoh,Kalimantan Barat,Kabupaten Melawi,Melawi,Indonesia,-0.33333,111.73333,18/03/2020 16:00,Rain,95
Mempawah,Kalimantan Barat,Kabupaten Mempawah,Mempawah,Indonesia,0.37102,108.97013,18/03/2020 16:00,Rain,86
Sambas,Kalimantan Barat,Kabupaten Sambas,Sambas,Indonesia,1.33333,109.25,18/03/2020 16:00,Rain,88
Sanggau,Kalimantan Barat,Kabupaten Sanggau,Sanggau,Indonesia,0.13333,110.6,18/03/2020 16:00,Rain,94
Sekadau,Kalimantan Barat,Kabupaten Sekadau,Sekadau,Indonesia,0.01667,110.9,18/03/2020 16:00,Rain,93
Sintang,Kalimantan Barat,Kabupaten Sintang,Sintang,Indonesia,0.06667,111.5,18/03/2020 16:00,Rain,87
Banjarbaru,Kalimantan Selatan,Kota Banjarbaru,Banjarbaru,Indonesia,-3.4572422,114.8103181,18/03/2020 16:00,Broken clouds,72
Banjarmasin,Kalimantan Selatan,Kota Banjarmasin,Banjarmasin,Indonesia,-3.31987,114.59075,18/03/2020 07:00,Broken clouds,65
Paringin,Kalimantan Selatan,Kabupaten Balangan,Balangan,Indonesia,-2.3357,115.4749,18/03/2020 16:00,Rain,55
Martapura,Kalimantan Selatan,Kabupaten Banjar,Banjar,Indonesia,-3.4109,114.8642,18/03/2020 16:00,Broken clouds,72
Marabahan,Kalimantan Selatan,Kabupaten Barito Kuala,Barito Kuala,Indonesia,-3.0136,114.7687,18/03/2020 16:00,Scattered clouds,50
Kandangan,Kalimantan Selatan,Kabupaten Hulu Sungai Selatan,Hulu Sungai Selatan,Indonesia,-2.7837,115.2772,18/03/2020 16:00,Rain,87
Barabai,Kalimantan Selatan,Kabupaten Hulu Sungai Tengah,Hulu Sungai Tengah,Indonesia,-2.58333,115.38333,18/03/2020 16:00,Rain,55
Amuntai,Kalimantan Selatan,Kabupaten Hulu Sungai Utara,Hulu Sungai Utara,Indonesia,-2.41773,115.24941,18/03/2020 16:00,Rain,55
Tanjung,Kalimantan Selatan,Kabupaten Tabalong,Tabalong,Indonesia,-2.1709,115.4077,18/03/2020 16:00,Rain,69
Batulicin,Kalimantan Selatan,Kabupaten Tanah Bumbu,Tanah Bumbu,Indonesia,-3.42022,116.00611,18/03/2020 16:00,Broken clouds,67
Pelaihari,Kalimantan Selatan,Kabupaten Tanah Laut,Tanah Laut,Indonesia,-3.7987,114.7788,18/03/2020 16:00,Rain,78
Rantau,Kalimantan Selatan,Kabupaten Tapin,Tapin,Indonesia,-2.9334,115.1621,18/03/2020 16:00,Scattered clouds,50
Tamiang Layang,Kalimantan Tengah,Kabupaten Barito Timur,Barito Timur,Indonesia,-2.1236,115.1958,18/03/2020 16:00,Broken clouds,51
Puruk Cahu,Kalimantan Tengah,Kabupaten Murung Raya,Murung Raya,Indonesia,-0.58333,114.58333,18/03/2020 16:00,Broken clouds,51
Palangkaraya,Kalimantan Tengah,Kota Palangka Raya,Palangka Raya,Indonesia,-2.2161048,113.913977,18/03/2020 07:00,Broken clouds,48
Buntok,Kalimantan Tengah,Kabupaten Barito Selatan,Barito Selatan,Indonesia,-3.55,114.767,18/03/2020 16:00,Broken clouds,72
Muara Teweh,Kalimantan Tengah,Kabupaten Barito Utara,Barito Utara,Indonesia,-0.9403,114.8939,18/03/2020 16:00,Broken clouds,48
Kualakapuas,Kalimantan Tengah,Kabupaten Kapuas,Kapuas,Indonesia,-3.00913,114.38759,18/03/2020 16:00,Scattered clouds,49
Pangkalan Bun,Kalimantan Tengah,Kabupaten Kotawaringin Barat,Kotawaringin Barat,Indonesia,-2.688962,111.622398,18/03/2020 16:00,Broken clouds,88
Sampit,Kalimantan Tengah,Kabupaten Kotawaringin Timur,Kotawaringin Timur,Indonesia,-2.5315,112.9496,18/03/2020 16:00,Broken clouds,56
Nanga Bulik,Kalimantan Tengah,Kabupaten Lamandau,Lamandau,Indonesia,-2.1624,111.4885,18/03/2020 16:00,Rain,94
Pulang Pisau,Kalimantan Tengah,Kabupaten Pulang Pisau,Pulang Pisau,Indonesia,-2.7671,114.2406,18/03/2020 16:00,Broken clouds,50
Kuala Pembuang,Kalimantan Tengah,Kabupaten Seruyan,Seruyan,Indonesia,-3.39228,112.55049,18/03/2020 16:00,Rain,71
Ujoh Bilang,Kalimantan Timur,Kabupaten Mahakam Ulu,Mahakam Ulu,Indonesia,0.55,115.25,18/03/2020 16:00,Rain,56
Tana Paser,Kalimantan Timur,Kabupaten Paser,Paser,Indonesia,-1.9051,116.1913,18/03/2020 16:00,Rain,90
Balikpapan,Kalimantan Timur,Kota Balikpapan,Balikpapan,Indonesia,-1.26753,116.82887,18/03/2020 16:00,Few clouds,66
Bontang,Kalimantan Timur,Kota Bontang,Bontang,Indonesia,0.1324,117.4854,18/03/2020 16:00,Scattered clouds,76
Samarinda,Kalimantan Timur,Kota Samarinda,Samarinda,Indonesia,-0.4948232,117.1436154,18/03/2020 16:00,Few clouds,55
Sendawar,Kalimantan Timur,Kabupaten Kutai Barat,Kutai Barat,Indonesia,-0.23639,115.69472,18/03/2020 16:00,Broken clouds,50
Sangatta,Kalimantan Timur,Kabupaten Kutai Timur,Kutai Timur,Indonesia,0.5049,117.5279,18/03/2020 16:00,Rain,73
Penajam,Kalimantan Timur,Kabupaten Penajam Paser Utara,Penajam Paser Utara,Indonesia,-1.24919,116.76968,18/03/2020 16:00,Few clouds,66
Tanjung Selor,Kalimantan Utara,Kabupaten Bulungan,Bulungan,Indonesia,2.8375,117.36528,18/03/2020 16:00,Clear sky,74
Tarakan,Kalimantan Utara,Kota Tarakan,Tarakan,Indonesia,3.31332,117.59152,18/03/2020 16:00,Clear sky,72
Malinau,Kalimantan Utara,Kabupaten Malinau,Malinau,Indonesia,3.58855,116.62391,18/03/2020 16:00,Rain,60
Tideng Pale,Kalimantan Utara,Kabupaten Tana Tidung,Tana Tidung,Indonesia,3.60815,116.90668,18/03/2020 16:00,Broken clouds,58
Muntok,Kepulauan Bangka Belitung,Kabupaten Bangka Barat,Bangka Barat,Indonesia,-2.06719,105.16228,18/03/2020 16:00,Scattered clouds,75
Koba,Kepulauan Bangka Belitung,Kabupaten Bangka Tengah,Bangka Tengah,Indonesia,-2.49313,106.4081,18/03/2020 16:00,Rain,77
Manggar,Kepulauan Bangka Belitung,Kabupaten Belitung Timur,Belitung Timur,Indonesia,-2.88333,108.26667,18/03/2020 16:00,Rain,74
Pangkalpinang,Kepulauan Bangka Belitung,Kota Pangkalpinang,Pangkalpinang,Indonesia,-2.12914,106.11377,18/03/2020 16:00,Rain,80
Sungailiat,Kepulauan Bangka Belitung,Kabupaten Bangka,Bangka,Indonesia,-1.85442,106.12215,18/03/2020 16:00,Rain,80
Tanjung Pandan,Kepulauan Bangka Belitung,Kabupaten Belitung,Belitung,Indonesia,-2.73353,107.63477,18/03/2020 16:00,Broken clouds,74
Kijang,Kepulauan Riau,Kabupaten Bintan,Bintan,Indonesia,0.9,104.63333,18/03/2020 16:00,Few clouds,66
Tarempa,Kepulauan Riau,Kabupaten Kepulauan Anambas,Kepulauan Anambas,Indonesia,3.21583,106.21722,18/03/2020 16:00,Scattered clouds,77
Daik Lingga,Kepulauan Riau,Kabupaten Lingga,Lingga,Indonesia,-0.21451,104.61824,18/03/2020 16:00,Broken clouds,79
Ranai,Kepulauan Riau,Kabupaten Natuna,Natuna,Indonesia,3.9384,108.38401,18/03/2020 16:00,Broken clouds,76
Batam,Kepulauan Riau,Kota Batam,Batam,Indonesia,1.1300779,104.0529207,18/03/2020 05:00,Few clouds,66
Tanjung Pinang,Kepulauan Riau,Kota Tanjungpinang,Tanjung pinang,Indonesia,0.91667,104.45833,18/03/2020 16:00,Few clouds,66
Liwa,Lampung,Kabupaten Lampung Barat,Lampung Barat,Indonesia,-5.03554,104.07595,18/03/2020 16:00,Rain,89
Kalianda,Lampung,Kabupaten Lampung Selatan,Lampung Selatan,Indonesia,-5.73805,105.5916,18/03/2020 16:00,Rain,92
Krui,Lampung,Kabupaten Pesisir Barat,Pesisir Barat,Indonesia,-5.18251,103.93746,18/03/2020 16:00,Rain,89
Bandar Lampung,Lampung,Kota Bandar Lampung,Bandar Lampung,Indonesia,-5.42917,105.26111,18/03/2020 05:00,Rain,92
Metro,Lampung,Kota Metro,Metro,Indonesia,-5.11306,105.30667,18/03/2020 16:00,Rain,91
Gunung Sugih,Lampung,Kabupaten Lampung Tengah,Lampung Tengah,Indonesia,-4.9753,105.21396,18/03/2020 16:00,Rain,74
Sukadana,Lampung,Kabupaten Lampung Timur,Lampung Timur,Indonesia,-1.25,109.95,18/03/2020 16:00,Broken clouds,71
Kotabumi,Lampung,Kabupaten Lampung Utara,Lampung Utara,Indonesia,-4.82505,104.8817,18/03/2020 16:00,Rain,74
Gedong Tataan,Lampung,Kabupaten Pesawaran,Pesawaran,Indonesia,-5.3827,105.0955,18/03/2020 16:00,Rain,89
Pringsewu,Lampung,Kabupaten Pringsewu,Pringsewu,Indonesia,-5.35822,104.97441,18/03/2020 16:00,Rain,89
Kota Agung,Lampung,Kabupaten Tanggamus,Tanggamus,Indonesia,-5.50257,104.64538,18/03/2020 16:00,Rain,88
Menggala,Lampung,Kabupaten Tulang Bawang,Tulang Bawang,Indonesia,-4.47131,105.25214,18/03/2020 16:00,Rain,78
Blambangan Umpu,Lampung,Kabupaten Way Kanan,Way Kanan,Indonesia,-4.50263,104.51926,18/03/2020 16:00,Broken clouds,61
Tiakur,Maluku,Kabupaten Maluku Barat Daya,Maluku Barat Daya,Indonesia,-8.15,127.795,18/03/2020 16:00,Broken clouds,71
Piru,Maluku,Kabupaten Seram Bagian Barat,Seram Bagian Barat,Indonesia,-3.0618,128.1945,18/03/2020 16:00,Rain,70
Bula,Maluku,Kabupaten Seram Bagian Timur,Seram Bagian Timur,Indonesia,-3.1112,130.4954,18/03/2020 16:00,Rain,68
Ambon,Maluku,Kota Ambon,Ambon,Indonesia,-3.69583,128.18333,18/03/2020 16:00,Scattered clouds,70
Tual,Maluku,Kota Tual,Tual,Indonesia,-5.62878,132.75229,18/03/2020 16:00,Broken clouds,69
Namlea,Maluku,Kabupaten Buru,Buru,Indonesia,-3.26194,127.09292,18/03/2020 16:00,Rain,90
Namrole,Maluku,Kabupaten Buru Selatan,Buru Selatan,Indonesia,-3.84548,126.72619,18/03/2020 16:00,Broken clouds,70
Dobo,Maluku,Kabupaten Kepulauan Aru,Kepulauan Aru,Indonesia,-5.76092,134.23405,18/03/2020 16:00,Rain,71
Masohi,Maluku,Kabupaten Maluku Tengah,Maluku Tengah,Indonesia,-3.29833,128.96882,18/03/2020 16:00,Broken clouds,69
Langgur,Maluku,Kabupaten Maluku Tenggara,Maluku Tenggara,Indonesia,-5.66689,132.73762,18/03/2020 16:00,Clear sky,69
Daruba,Maluku Utara,Kabupaten Pulau Morotai,Pulau Morotai,Indonesia,2.05049,128.29398,18/03/2020 16:00,Clear sky,74
Ternate,Maluku Utara,Kota Ternate,Ternate,Indonesia,0.79065,127.38424,18/03/2020 16:00,Rain,82
Jailolo,Maluku Utara,Kabupaten Halmahera Barat,Halmahera Barat,Indonesia,1.06504,127.46786,18/03/2020 16:00,Rain,82
Weda,Maluku Utara,Kabupaten Halmahera Tengah,Halmahera Tengah,Indonesia,0.32952,127.87389,18/03/2020 16:00,Rain,84
Maba,Maluku Utara,Kabupaten Halmahera Timur,Halmahera Timur,Indonesia,0.7007,128.29197,18/03/2020 16:00,Broken clouds,74
Labuha,Maluku Utara,Kabupaten Halmahera Selatan,Halmahera Selatan,Indonesia,-0.62546,127.47808,18/03/2020 16:00,Rain,83
Tobelo,Maluku Utara,Kabupaten Halmahera Utara,Halmahera Utara,Indonesia,1.72837,128.00948,18/03/2020 16:00,Rain,76
Sanana,Maluku Utara,Kabupaten Kepulauan Sula,Kepulauan Sula,Indonesia,-2.05853,125.97786,18/03/2020 16:00,Rain,77
Bobong,Maluku Utara,Kabupaten Pulau Taliabu,Pulau Taliabu,Indonesia,-1.94625,124.38394,18/03/2020 16:00,Scattered clouds,72
Woha,Nusa Tenggara Barat,Kabupaten Bima,Bima,Indonesia,-8.61802,118.64788,18/03/2020 16:00,Rain,90
Gerung,Nusa Tenggara Barat,Kabupaten Lombok Barat,Lombok Barat,Indonesia,-8.683,116.1253,18/03/2020 16:00,Scattered clouds,83
Bima,Nusa Tenggara Barat,Kota Bima,Bima,Indonesia,-8.46006,118.72667,18/03/2020 16:00,Rain,90
Mataram,Nusa Tenggara Barat,Kota Mataram,Mataram,Indonesia,-8.58333,116.11667,18/03/2020 16:00,Scattered clouds,83
Dompu,Nusa Tenggara Barat,Kabupaten Dompu,Dompu,Indonesia,-8.5365,118.4634,18/03/2020 16:00,Rain,90
Praya,Nusa Tenggara Barat,Kabupaten Lombok Tengah,Lombok Tengah,Indonesia,-8.70536,116.27036,18/03/2020 16:00,Scattered clouds,83
Selong,Nusa Tenggara Barat,Kabupaten Lombok Timur,Lombok Timur,Indonesia,-8.6503,116.5318,18/03/2020 16:00,Scattered clouds,83
Tanjung,Nusa Tenggara Barat,Kabupaten Lombok Utara,Lombok Utara,Indonesia,-2.1709,115.4077,18/03/2020 16:00,Rain,69
Sumbawa Besar,Nusa Tenggara Barat,Kabupaten Sumbawa,Sumbawa,Indonesia,-8.49317,117.42024,18/03/2020 16:00,Rain,90
Taliwang,Nusa Tenggara Barat,Kabupaten Sumbawa Barat,Sumbawa Barat,Indonesia,-8.7449,116.8532,18/03/2020 16:00,Scattered clouds,83
Oelamasi,Nusa Tenggara Timur,Kabupaten Kupang,Kupang,Indonesia,-10.0642,123.8787,18/03/2020 16:00,Few clouds,88
Kupang,Nusa Tenggara Timur,Kota Kupang,Kupang,Indonesia,-10.17083,123.60694,18/03/2020 04:00,Few clouds,88
Kalabahi,Nusa Tenggara Timur,Kabupaten Alor,Alor,Indonesia,-8.2151,124.5458,18/03/2020 16:00,Clear sky,66
Atambua,Nusa Tenggara Timur,Kabupaten Belu,Belu,Indonesia,-9.10611,124.8925,18/03/2020 16:00,Scattered clouds,77
Ende,Nusa Tenggara Timur,Kabupaten Ende,Ende,Indonesia,-8.8432,121.6623,18/03/2020 16:00,Rain,69
Larantuka,Nusa Tenggara Timur,Kabupaten Flores Timur,Flores Timur,Indonesia,-8.3468,122.9771,18/03/2020 16:00,Scattered clouds,66
Lewoleba,Nusa Tenggara Timur,Kabupaten Lembata,Lembata,Indonesia,-8.3723,123.418,18/03/2020 16:00,Scattered clouds,73
Betun,Nusa Tenggara Timur,Kabupaten Malaka,Malaka,Indonesia,-9.56722,124.9075,18/03/2020 16:00,Few clouds,69
Ruteng,Nusa Tenggara Timur,Kabupaten Manggarai,Manggarai,Indonesia,-8.61139,120.46444,18/03/2020 16:00,Rain,92
Labuan Bajo,Nusa Tenggara Timur,Kabupaten Manggarai Barat,Manggarai Barat,Indonesia,-8.4964,119.8877,18/03/2020 16:00,Rain,86
Borong,Nusa Tenggara Timur,Kabupaten Manggarai Timur,Manggarai Timur,Indonesia,-8.8125,120.60972,18/03/2020 16:00,Broken clouds,71
Mbay,Nusa Tenggara Timur,Kabupaten Nagekeo,Nagekeo,Indonesia,-8.5613,121.2717,18/03/2020 16:00,Rain,70
Bajawa,Nusa Tenggara Timur,Kabupaten Ngada,Ngada,Indonesia,-8.7848,120.9744,18/03/2020 16:00,Rain,73
Baa,Nusa Tenggara Timur,Kabupaten Rote Ndao,Rote Ndao,Indonesia,-10.7263,123.0492,18/03/2020 16:00,Broken clouds,71
Seba,Nusa Tenggara Timur,Kabupaten Sabu Raijua,Sabu Raijua,Indonesia,-10.4933,121.8393,18/03/2020 16:00,Broken clouds,72
Maumere,Nusa Tenggara Timur,Kabupaten Sikka,Sikka,Indonesia,-8.6199,122.2111,18/03/2020 16:00,Rain,79
Waikabubak,Nusa Tenggara Timur,Kabupaten Sumba Barat,Sumba Barat,Indonesia,-9.6475,119.3889,18/03/2020 16:00,Rain,87
Tambolaka,Nusa Tenggara Timur,Kabupaten Sumba Barat Daya,Sumba Barat Daya,Indonesia,-9.4283,119.238,18/03/2020 16:00,Rain,75
Waibakul,Nusa Tenggara Timur,Kabupaten Sumba Tengah,Sumba Tengah,Indonesia,-9.63556,119.41333,18/03/2020 16:00,Rain,87
Waingapu,Nusa Tenggara Timur,Kabupaten Sumba Timur,Sumba Timur,Indonesia,-9.6567,120.2641,18/03/2020 16:00,Rain,71
Soe,Nusa Tenggara Timur,Kabupaten Timor Tengah Selatan,Timor Tengah Selatan,Indonesia,-9.86071,124.28395,18/03/2020 16:00,Scattered clouds,73
Kefamenanu,Nusa Tenggara Timur,Kabupaten Timor Tengah Utara,Timor Tengah Utara,Indonesia,-9.44667,124.47806,18/03/2020 16:00,Few clouds,83
Jayapura,Papua,Kota Jayapura,Jayapura,Indonesia,-2.53371,140.71813,18/03/2020 05:00,Broken clouds,89
Agats,Papua,Kabupaten Asmat,Asmat,Indonesia,-5.54505,138.13522,18/03/2020 16:00,Broken clouds,70
Biak,Papua,Kabupaten Biak Numfor,Biak Numfor,Indonesia,-1.1767,136.082,18/03/2020 16:00,Broken clouds,86
Tanah Merah,Papua,Kabupaten Boven Digoel,Boven Digoel,Indonesia,-6.09756,140.30649,18/03/2020 16:00,Rain,96
Tigi,Papua,Kabupaten Deiyai,Deiyai,Indonesia,-3.96667,136.26667,18/03/2020 16:00,Rain,98
Kigamani,Papua,Kabupaten Dogiyai,Dogiyai,Indonesia,-3.96139,135.94361,18/03/2020 16:00,Rain,98
Sugapa,Papua,Kabupaten Intan Jaya,Intan Jaya,Indonesia,-3.74306,137.05,18/03/2020 16:00,Rain,96
Sentani,Papua,Kabupaten Jayapura,Jayapura,Indonesia,-2.5691,140.5127,18/03/2020 16:00,Broken clouds,89
Wamena,Papua,Kabupaten Jayawijaya,Jayawijaya,Indonesia,-4.09512,138.94492,18/03/2020 16:00,Rain,97
Waris,Papua,Kabupaten Keerom,Keerom,Indonesia,-3.11667,140.88333,18/03/2020 16:00,Rain,96
Serui,Papua,Kabupaten Kepulauan Yapen,Kepulauan Yapen,Indonesia,-1.8802,136.2426,18/03/2020 16:00,Broken clouds,73
Tiom,Papua,Kabupaten Lanny Jaya,Lanny Jaya,Indonesia,-3.92361,138.45472,18/03/2020 16:00,Rain,97
Burmeso,Papua,Kabupaten Mamberamo Raya,Mamberamo Raya,Indonesia,-2.32611,138.04139,18/03/2020 16:00,Rain,98
Kobakma,Papua,Kabupaten Mamberamo Tengah,Mamberamo Tengah,Indonesia,-3.66417,139.065,18/03/2020 16:00,Rain,96
Kepi,Papua,Kabupaten Mappi,Mappi,Indonesia,-6.52461,139.32224,18/03/2020 16:00,Rain,94
Nabire,Papua,Kabupaten Nabire,Nabire,Indonesia,-3.35989,135.50074,18/03/2020 16:00,Rain,95
Kenyam,Papua,Kabupaten Nduga,Nduga,Indonesia,-4.59972,138.38417,18/03/2020 16:00,Rain,96
Enarotali,Papua,Kabupaten Paniai,Paniai,Indonesia,-3.93032,136.37651,18/03/2020 16:00,Rain,98
Oksibil,Papua,Kabupaten Pegunungan Bintang,Pegunungan Bintang,Indonesia,-4.90417,140.62972,18/03/2020 16:00,Rain,99
Ilaga,Papua,Kabupaten Puncak,Puncak,Indonesia,-3.95,137.4,18/03/2020 16:00,Rain,99
Mulia,Papua,Kabupaten Puncak Jaya,Puncak Jaya,Indonesia,-3.71472,137.98528,18/03/2020 16:00,Rain,97
Sarmi,Papua,Kabupaten Sarmi,Sarmi,Indonesia,-1.85302,138.75093,18/03/2020 16:00,Rain,86
Sorendiweri,Papua,Kabupaten Supiori,Supiori,Indonesia,-0.73389,135.73611,18/03/2020 16:00,Clear sky,70
Karubaga,Papua,Kabupaten Tolikara,Tolikara,Indonesia,-3.6994,138.4579,18/03/2020 16:00,Rain,99
Botawa,Papua,Kabupaten Waropen,Waropen,Indonesia,-2.21,136.44722,18/03/2020 16:00,Rain,77
Sumohai,Papua,Kabupaten Yahukimo,Yahukimo,Indonesia,-4.68944,139.35472,18/03/2020 16:00,Rain,96
Elelim,Papua,Kabupaten Yalimo,Yalimo,Indonesia,-3.759,139.7075,18/03/2020 16:00,Rain,91
Aimas,Papua Barat,Kabupaten Sorong,Sorong,Indonesia,-0.95698,131.33535,18/03/2020 16:00,Rain,80
Sorong,Papua Barat,Kota Sorong,Sorong,Indonesia,-0.87956,131.26104,18/03/2020 16:00,Rain,80
Fakfak,Papua Barat,Kabupaten Fakfak,Fakfak,Indonesia,-2.92481,132.29813,18/03/2020 16:00,Scattered clouds,79
Kaimana,Papua Barat,Kabupaten Kaimana,Kaimana,Indonesia,-3.6635,133.7649,18/03/2020 16:00,Rain,88
Manokwari,Papua Barat,Kabupaten Manokwari,Manokwari,Indonesia,-0.86291,134.06402,18/03/2020 16:00,Rain,84
Ransiki,Papua Barat,Kabupaten Manokwari Selatan,Manokwari Selatan,Indonesia,-1.5083,134.1708,18/03/2020 16:00,Rain,96
Kumurkek,Papua Barat,Kabupaten Maybrat,Maybrat,Indonesia,-1.25667,132.49972,18/03/2020 16:00,Rain,76
Waisai,Papua Barat,Kabupaten Raja Ampat,Raja Ampat,Indonesia,-0.2379,130.5072,18/03/2020 16:00,Broken clouds,72
Teminabuan,Papua Barat,Kabupaten Sorong Selatan,Sorong Selatan,Indonesia,-1.4416,132.01428,18/03/2020 16:00,Broken clouds,76
Fef,Papua Barat,Kabupaten Tambrauw,Tambrauw,Indonesia,-0.80889,132.43222,18/03/2020 16:00,Broken clouds,70
Bintuni,Papua Barat,Kabupaten Teluk Bintuni,Teluk Bintuni,Indonesia,-2.1084,133.537,18/03/2020 16:00,Broken clouds,72
Rasiei,Papua Barat,Kabupaten Teluk Wondama,Teluk Wondama,Indonesia,-2.817,134.5292,18/03/2020 16:00,Rain,95
Teluk Kuantan,Riau,Kabupaten Kuantan Singingi,Kuantan Singingi,Indonesia,-0.5283,101.581,18/03/2020 16:00,Broken clouds,55
Bagansiapiapi,Riau,Kabupaten Rokan Hilir,Rokan Hilir,Indonesia,2.15668,100.80763,18/03/2020 16:00,Rain,68
Dumai,Riau,Kota Dumai,Dumai,Indonesia,1.66711,101.44316,18/03/2020 16:00,Rain,75
Pekanbaru,Riau,Kota Pekanbaru,Pekanbaru,Indonesia,0.5070677,101.4477793,18/03/2020 17:00,Rain,85
Bengkalis,Riau,Kabupaten Bengkalis,Bengkalis,Indonesia,1.46667,102.13333,18/03/2020 16:00,Few clouds,61
Tembilahan,Riau,Kabupaten Indragiri Hilir,Indragiri Hilir,Indonesia,-0.3227,103.1603,18/03/2020 16:00,Rain,83
Rengat,Riau,Kabupaten Indragiri Hulu,Indragiri Hulu,Indonesia,-0.37546,102.5481,18/03/2020 16:00,Rain,84
Bangkinang,Riau,Kabupaten Kampar,Kampar,Indonesia,0.33833,101.02361,18/03/2020 16:00,Broken clouds,54
Selat Panjang,Riau,Kabupaten Kepulauan Meranti,Kepulauan Meranti,Indonesia,0.99408,102.70817,18/03/2020 16:00,Rain,67
Pangkalan Kerinci,Riau,Kabupaten Pelalawan,Pelalawan,Indonesia,0.39611,101.85722,18/03/2020 16:00,Rain,83
Pasir Pengaraian,Riau,Kabupaten Rokan Hulu,Rokan Hulu,Indonesia,0.86459,100.29547,18/03/2020 16:00,Broken clouds,53
Siak Sri Indrapura,Riau,Kabupaten Siak,Siak,Indonesia,0.79317,102.0511,18/03/2020 16:00,Rain,59
Majene,Sulawesi Barat,Kabupaten Majene,Majene,Indonesia,-3.5403,118.9707,18/03/2020 16:00,Rain,76
Mamasa,Sulawesi Barat,Kabupaten Mamasa,Mamasa,Indonesia,-2.942,119.3776,18/03/2020 16:00,Rain,93
Mamuju,Sulawesi Barat,Kabupaten Mamuju,Mamuju,Indonesia,-2.68056,118.88611,18/03/2020 16:00,Broken clouds,72
Tobadak,Sulawesi Barat,Kabupaten Mamuju Tengah,Mamuju Tengah,Indonesia,-2.08944,119.34722,18/03/2020 16:00,Rain,94
Polewali,Sulawesi Barat,Kabupaten Polewali Mandar,Polewali Mandar,Indonesia,-3.4324,119.3435,18/03/2020 16:00,Rain,87
Jeneponto,Sulawesi Selatan,Kabupaten Jeneponto,Jeneponto,Indonesia,-5.6765,119.7484,18/03/2020 16:00,Rain,82
Rappang,Sulawesi Selatan,Kabupaten Sidenreng Rappang,Sidenreng Rappang,Indonesia,-3.8445,119.8173,18/03/2020 16:00,Rain,86
Sinjai,Sulawesi Selatan,Kabupaten Sinjai,Sinjai,Indonesia,-5.1241,120.253,18/03/2020 16:00,Broken clouds,70
Watansoppeng,Sulawesi Selatan,Kabupaten Soppeng,Soppeng,Indonesia,-4.3522,119.8841,18/03/2020 16:00,Rain,92
Takalar,Sulawesi Selatan,Kabupaten Takalar,Takalar,Indonesia,-5.4258,119.4384,18/03/2020 16:00,Scattered clouds,88
Makale,Sulawesi Selatan,Kabupaten Tana Toraja,Tana Toraja,Indonesia,-3.1019,119.8539,18/03/2020 16:00,Rain,95
Rantepao,Sulawesi Selatan,Kabupaten Toraja Utara,Toraja Utara,Indonesia,-2.9701,119.8978,18/03/2020 16:00,Rain,95
Sengkang,Sulawesi Selatan,Kabupaten Wajo,Wajo,Indonesia,-4.1279,120.0297,18/03/2020 16:00,Rain,86
Makassar,Sulawesi Selatan,Kota Makassar,Makassar,Indonesia,-5.14861,119.43194,18/03/2020 17:00,Scattered clouds,88
Palopo,Sulawesi Selatan,Kota Palopo,Palopo,Indonesia,-2.9925,120.19694,18/03/2020 16:00,Rain,95
Parepare,Sulawesi Selatan,Kota Parepare,Pare-Pare,Indonesia,-4.0135,119.6255,18/03/2020 16:00,Rain,72
Bantaeng,Sulawesi Selatan,Kabupaten Bantaeng,Bantaeng,Indonesia,-5.5475,119.9509,18/03/2020 16:00,Scattered clouds,88
Barru,Sulawesi Selatan,Kabupaten Barru,Barru,Indonesia,-4.412,119.618,18/03/2020 16:00,Rain,69
Watampone,Sulawesi Selatan,Kabupaten Bone,Bone,Indonesia,-4.5386,120.3279,18/03/2020 16:00,Broken clouds,69
Bulukumba,Sulawesi Selatan,Kabupaten Bulukumba,Bulukumba,Indonesia,-5.55,120.18333,18/03/2020 16:00,Rain,82
Enrekang,Sulawesi Selatan,Kabupaten Enrekang,Enrekang,Indonesia,-3.56508,119.77025,18/03/2020 16:00,Rain,97
Sungguminasa,Sulawesi Selatan,Kabupaten Gowa,Gowa,Indonesia,-5.1971,119.451,18/03/2020 16:00,Scattered clouds,88
Benteng,Sulawesi Selatan,Kabupaten Kepulauan Selayar,Kepulauan Selayar,Indonesia,-6.1184,120.4605,18/03/2020 16:00,Rain,68
Belopa,Sulawesi Selatan,Kabupaten Luwu,Luwu,Indonesia,-3.3849,120.3676,18/03/2020 16:00,Rain,71
Malili,Sulawesi Selatan,Kabupaten Luwu Timur,Luwu Timur,Indonesia,-2.6351,121.0948,18/03/2020 16:00,Rain,93
Masamba,Sulawesi Selatan,Kabupaten Luwu Utara,Luwu Utara,Indonesia,-2.5537,120.3279,18/03/2020 16:00,Rain,94
Pangkajene,Sulawesi Selatan,Kabupaten Pangkajene dan Kepulauan,Pangkajene dan Kepulauan,Indonesia,-4.8372,119.5472,18/03/2020 16:00,Scattered clouds,88
Pinrang,Sulawesi Selatan,Kabupaten Pinrang,Pinrang,Indonesia,-3.78611,119.65222,18/03/2020 16:00,Rain,72
Luwuk,Sulawesi Tengah,Kabupaten Banggai,Banggai,Indonesia,-0.9516,122.7875,18/03/2020 16:00,Rain,72
Salakan,Sulawesi Tengah,Kabupaten Banggai Kepulauan,Banggai Kepulauan,Indonesia,-1.3085,123.2909,18/03/2020 16:00,Broken clouds,77
Banggai,Sulawesi Tengah,Kabupaten Banggai Laut,Banggai Laut,Indonesia,-1.5887,123.4992,18/03/2020 16:00,Broken clouds,77
Buol,Sulawesi Tengah,Kabupaten Buol,Buol,Indonesia,1.1584,121.4361,18/03/2020 16:00,Clear sky,75
Bungku,Sulawesi Tengah,Kabupaten Morowali,Morowali,Indonesia,-2.5471,121.972,18/03/2020 16:00,Rain,69
Kolonodale,Sulawesi Tengah,Kabupaten Morowali Utara,Morowali Utara,Indonesia,-1.9825,121.3364,18/03/2020 16:00,Broken clouds,72
Poso,Sulawesi Tengah,Kabupaten Poso,Poso,Indonesia,-1.3959,120.7524,18/03/2020 16:00,Broken clouds,82
Sigi Biromaru,Sulawesi Tengah,Kabupaten Sigi,Sigi,Indonesia,-0.94982,119.91805,18/03/2020 16:00,Rain,86
Ampana,Sulawesi Tengah,Kabupaten Tojo Una-Una,Tojo Una-Una,Indonesia,-0.86901,121.58367,18/03/2020 16:00,Scattered clouds,71
Tolitoli,Sulawesi Tengah,Kabupaten Tolitoli,Toli-toli,Indonesia,1.0392,120.8169,18/03/2020 16:00,Rain,78
Palu,Sulawesi Tengah,Kota Palu,Palu,Indonesia,-0.90833,119.87083,18/03/2020 16:00,Rain,86
Parigi,Sulawesi Tengah,Kabupaten Parigi Moutong,Parigi Moutong,Indonesia,-7.7015,108.496,18/03/2020 16:00,Rain,89
Rumbia,Sulawesi Tenggara,Kabupaten Bombana,Bombana,Indonesia,-4.62767,122.00472,18/03/2020 16:00,Rain,90
Pasar Wajo,Sulawesi Tenggara,Kabupaten Buton,Buton,Indonesia,-5.4957,122.8447,18/03/2020 16:00,Rain,72
Batauga,Sulawesi Tenggara,Kabupaten Buton Selatan,Buton Selatan,Indonesia,-5.5882,122.5964,18/03/2020 16:00,Rain,67
Labungkari,Sulawesi Tenggara,Kabupaten Buton Tengah,Buton Tengah,Indonesia,-5.26318,122.55104,18/03/2020 16:00,Rain,70
Buranga,Sulawesi Tenggara,Kabupaten Buton Utara,Buton Utara,Indonesia,-4.80098,122.98308,18/03/2020 16:00,Rain,77
Kolaka,Sulawesi Tenggara,Kabupaten Kolaka,Kolaka,Indonesia,-4.0597,121.60556,18/03/2020 16:00,Rain,76
Lasusua,Sulawesi Tenggara,Kabupaten Kolaka Utara,Kolaka Utara,Indonesia,-3.5105,120.8844,18/03/2020 16:00,Rain,92
Unaaha,Sulawesi Tenggara,Kabupaten Konawe,Konawe,Indonesia,-3.8539,122.042,18/03/2020 16:00,Rain,89
Langara,Sulawesi Tenggara,Kabupaten Konawe Kepulauan,Konawe Kepulauan,Indonesia,-4.0248,122.9906,18/03/2020 16:00,Broken clouds,73
Andoolo,Sulawesi Tenggara,Kabupaten Konawe Selatan,Konawe Selatan,Indonesia,-4.3273,122.2522,18/03/2020 16:00,Rain,67
Raha,Sulawesi Tenggara,Kabupaten Muna,Muna,Indonesia,-4.838,122.7209,18/03/2020 16:00,Rain,88
Kendari,Sulawesi Tenggara,Kota Kendari,Kendari,Indonesia,-3.9778,122.51507,18/03/2020 16:00,Broken clouds,73
Lolak,Sulawesi Utara,Kabupaten Bolaang Mongondow,Bolaang Mongondow,Indonesia,0.8755,124.0098,18/03/2020 16:00,Few clouds,67
Molibagu,Sulawesi Utara,Kabupaten Bolaang Mongondow Selatan,Bolaang Mongondow Selatan,Indonesia,0.3862,123.9824,18/03/2020 16:00,Rain,94
Tutuyan,Sulawesi Utara,Kabupaten Bolaang Mongondow Timur,Bolaang Mongondow Timur,Indonesia,0.7654,124.6144,18/03/2020 16:00,Rain,98
Boroko,Sulawesi Utara,Kabupaten Bolaang Mongondow Utara,Bolaang Mongondow Utara,Indonesia,0.9083,123.2679,18/03/2020 16:00,Scattered clouds,69
Ondong Siau,Sulawesi Utara,Kabupaten Kepulauan Siau Tagulandang Biaro,Kepulauan Siau Tagulandang Biaro,Indonesia,2.7473,125.3611,18/03/2020 16:00,Few clouds,78
Tondano,Sulawesi Utara,Kabupaten Minahasa,Minahasa,Indonesia,1.3054,124.91261,18/03/2020 16:00,Few clouds,74
Ratahan,Sulawesi Utara,Kabupaten Minahasa Tenggara,Minahasa Tenggara,Indonesia,1.0549,124.8012,18/03/2020 16:00,Few clouds,74
Airmadidi,Sulawesi Utara,Kabupaten Minahasa Utara,Minahasa Utara,Indonesia,1.42804,124.97774,18/03/2020 16:00,Few clouds,74
Bitung,Sulawesi Utara,Kota Bitung,Bitung,Indonesia,1.45697,125.1895,18/03/2020 16:00,Few clouds,74
Manado,Sulawesi Utara,Kota Manado,Manado,Indonesia,1.48218,124.84892,18/03/2020 05:00,Few clouds,74
Tomohon,Sulawesi Utara,Kota Tomohon,Tomohon,Indonesia,1.31678,124.80379,18/03/2020 16:00,Few clouds,74
Lubuk Basung,Sumatera Barat,Kabupaten Agam,Agam,Indonesia,-0.32545,100.06462,18/03/2020 16:00,Broken clouds,76
Pulau Punjung,Sumatera Barat,Kabupaten Dharmasraya,Dharmasraya,Indonesia,-0.959,101.5002,18/03/2020 16:00,Broken clouds,52
Tuapejat,Sumatera Barat,Kabupaten Kepulauan Mentawai,Kepulauan Mentawai,Indonesia,-2.02833,99.58944,18/03/2020 16:00,Rain,75
Sarilamak,Sumatera Barat,Kabupaten Lima Puluh Kota,Lima Puluh Kota,Indonesia,-0.1503,100.664,18/03/2020 16:00,Rain,76
Parit Malintang,Sumatera Barat,Kabupaten Padang Pariaman,Padang Pariaman,Indonesia,-0.62046,100.27885,18/03/2020 16:00,Rain,91
Lubuk Sikaping,Sumatera Barat,Kabupaten Pasaman,Pasaman,Indonesia,0.14411,100.1657,18/03/2020 16:00,Rain,88
Painan,Sumatera Barat,Kabupaten Pesisir Selatan,Pesisir Selatan,Indonesia,-1.35172,100.57383,18/03/2020 16:00,Rain,76
Sijunjung,Sumatera Barat,Kabupaten Sijunjung,Sijunjung,Indonesia,-0.7005,100.9774,18/03/2020 16:00,Broken clouds,57
Arosuka,Sumatera Barat,Kabupaten Solok,Solok,Indonesia,-0.95221,100.621,18/03/2020 16:00,Rain,95
Padang Aro,Sumatera Barat,Kabupaten Solok Selatan,Solok Selatan,Indonesia,-1.52722,101.26361,18/03/2020 16:00,Rain,63
Batusangkar,Sumatera Barat,Kabupaten Tanah Datar,Tanah Datar,Indonesia,-0.4606,100.6107,18/03/2020 16:00,Rain,91
Bukittinggi,Sumatera Barat,Kota Bukittinggi,Bukittinggi,Indonesia,-0.30907,100.37055,18/03/2020 16:00,Rain,91
Padang,Sumatera Barat,Kota Padang,Padang,Indonesia,-0.94924,100.35427,18/03/2020 07:00,Rain,95
Kota Padang Panjang,Sumatera Barat,Kota Padangpanjang,Padang panjang,Indonesia,-0.45,100.43333,18/03/2020 16:00,Rain,91
Pariaman,Sumatera Barat,Kota Pariaman,Pariaman,Indonesia,-0.61898,100.11997,18/03/2020 16:00,Broken clouds,76
Payakumbuh,Sumatera Barat,Kota Payakumbuh,Payakumbuh,Indonesia,-0.2159,100.6334,18/03/2020 16:00,Rain,76
Solok,Sumatera Barat,Kota Solok,Solok,Indonesia,-0.8006,100.6571,18/03/2020 16:00,Rain,95
Pangkalan Balai,Sumatera Selatan,Kabupaten Banyuasin,Banyuasin,Indonesia,-2.8812,104.3943,18/03/2020 16:00,Rain,85
Tebing Tinggi,Sumatera Selatan,Kabupaten Empat Lawang,Empat Lawang,Indonesia,-3.5842,103.0772,18/03/2020 16:00,Rain,94
Lahat,Sumatera Selatan,Kabupaten Lahat,Lahat,Indonesia,-3.78514,103.54279,18/03/2020 16:00,Rain,94
Muara Enim,Sumatera Selatan,Kabupaten Muara Enim,Muara Enim,Indonesia,-3.6486,103.771,18/03/2020 16:00,Rain,89
Sekayu,Sumatera Selatan,Kabupaten Musi Banyuasin,Musi Banyuasin,Indonesia,-2.8819,103.8344,18/03/2020 16:00,Rain,89
Muara Beliti,Sumatera Selatan,Kabupaten Musi Rawas,Musi Rawas,Indonesia,-3.2486,103.0335,18/03/2020 16:00,Rain,94
Muararupit,Sumatera Selatan,Kabupaten Musi Rawas Utara,Musi Rawas Utara,Indonesia,-2.7236,102.9108,18/03/2020 16:00,Rain,74
Indralaya,Sumatera Selatan,Kabupaten Ogan Ilir,Ogan Ilir,Indonesia,-3.25249,104.67555,18/03/2020 16:00,Rain,87
Kayu Agung,Sumatera Selatan,Kabupaten Ogan Komering Ilir,Ogan Komering Ilir,Indonesia,-3.392,104.8306,18/03/2020 16:00,Rain,89
Baturaja,Sumatera Selatan,Kabupaten Ogan Komering Ulu,Ogan Komering Ulu,Indonesia,-4.12891,104.16695,18/03/2020 16:00,Rain,75
Muara Dua,Sumatera Selatan,Kabupaten Ogan Komering Ulu Selatan,Ogan Komering Ulu Selatan,Indonesia,-4.53178,104.07397,18/03/2020 16:00,Rain,87
Talang Ubi,Sumatera Selatan,Kabupaten Penukal Abab Lematang Ilir,Penukal Abab Lematang Ilir,Indonesia,-3.2656,103.8253,18/03/2020 16:00,Rain,89
Lubuklinggau,Sumatera Selatan,Kota Lubuklinggau,Lubuklinggau,Indonesia,-3.2945,102.8614,18/03/2020 16:00,Rain,94
Pagar Alam,Sumatera Selatan,Kota Pagar Alam,Pagar Alam,Indonesia,-4.02506,103.24694,18/03/2020 16:00,Rain,94
Palembang,Sumatera Selatan,Kota Palembang,Palembang,Indonesia,-2.9760735,104.7754307,18/03/2020 15:00,Rain,80
Prabumulih,Sumatera Selatan,Kota Prabumulih,Prabumulih,Indonesia,-3.43447,104.23056,18/03/2020 16:00,Rain,89
Martapura,Sumatera Selatan,Kabupaten Ogan Komering Ulu Timur,Ogan Komering Ulu Timur,Indonesia,-3.4109,114.8642,18/03/2020 16:00,Broken clouds,72
Kisaran,Sumatera Utara,Kabupaten Asahan,Asahan,Indonesia,2.9845,99.6158,18/03/2020 16:00,Scattered clouds,51
Limapuluh,Sumatera Utara,Kabupaten Batu Bara,Batu Bara,Indonesia,3.1689,99.4175,18/03/2020 16:00,Scattered clouds,51
Sidikalang,Sumatera Utara,Kabupaten Dairi,Dairi,Indonesia,2.74899,98.3127,18/03/2020 16:00,Rain,76
Lubuk Pakam,Sumatera Utara,Kabupaten Deli Serdang,Deli Serdang,Indonesia,3.5592,98.8733,18/03/2020 16:00,Scattered clouds,83
Dolok Sanggul,Sumatera Utara,Kabupaten Humbang Hasundutan,Humbang Hasundutan,Indonesia,2.2588,98.7501,18/03/2020 16:00,Rain,60
Kabanjahe,Sumatera Utara,Kabupaten Karo,Karo,Indonesia,3.1001,98.4908,18/03/2020 16:00,Scattered clouds,83
Rantau Prapat,Sumatera Utara,Kabupaten Labuhanbatu,Labuhanbatu,Indonesia,2.3321,100.05205,18/03/2020 16:00,Rain,74
Kota Pinang,Sumatera Utara,Kabupaten Labuhanbatu Selatan,Labuhanbatu Selatan,Indonesia,1.89076,100.09211,18/03/2020 16:00,Broken clouds,57
Aek Kanopan,Sumatera Utara,Kabupaten Labuhanbatu Utara,Labuhanbatu Utara,Indonesia,2.5704,99.6534,18/03/2020 16:00,Scattered clouds,51
Stabat,Sumatera Utara,Kabupaten Langkat,Langkat,Indonesia,3.73335,98.45025,18/03/2020 16:00,Scattered clouds,83
Panyabungan,Sumatera Utara,Kabupaten Mandailing Natal,Mandailing Natal,Indonesia,1.93206,99.69113,18/03/2020 16:00,Rain,72
Teluk Dalam,Sumatera Utara,Kabupaten Nias Selatan,Nias Selatan,Indonesia,0.5729,97.8034,18/03/2020 16:00,Rain,72
Lotu,Sumatera Utara,Kabupaten Nias Utara,Nias Utara,Indonesia,1.4299,97.35365,18/03/2020 16:00,Rain,78
Sibuhuan,Sumatera Utara,Kabupaten Padang Lawas,Padang Lawas,Indonesia,1.05387,99.73018,18/03/2020 16:00,Broken clouds,46
Gunung Tua,Sumatera Utara,Kabupaten Padang Lawas Utara,Padang Lawas Utara,Indonesia,1.51274,99.62628,18/03/2020 16:00,Broken clouds,58
Salak,Sumatera Utara,Kabupaten Pakpak Bharat,Pakpak Bharat,Indonesia,2.5566,98.3235,18/03/2020 16:00,Rain,76
Pangururan,Sumatera Utara,Kabupaten Samosir,Samosir,Indonesia,2.6081,98.6961,18/03/2020 16:00,Rain,76
Sei Rampah,Sumatera Utara,Kabupaten Serdang Bedagai,Serdang Bedagai,Indonesia,3.4845,99.1366,18/03/2020 16:00,Scattered clouds,83
Pematang Raya,Sumatera Utara,Kabupaten Simalungun,Simalungun,Indonesia,2.9658,98.8473,18/03/2020 16:00,Scattered clouds,83
Sipirok,Sumatera Utara,Kabupaten Tapanuli Selatan,Tapanuli Selatan,Indonesia,1.60248,99.27377,18/03/2020 16:00,Broken clouds,58
Pandan,Sumatera Utara,Kabupaten Tapanuli Tengah,Tapanuli Tengah,Indonesia,1.6838,98.822,18/03/2020 16:00,Broken clouds,64
Tarutung,Sumatera Utara,Kabupaten Tapanuli Utara,Tapanuli Utara,Indonesia,2.01467,98.96548,18/03/2020 16:00,Rain,86
Balige,Sumatera Utara,Kabupaten Toba Samosir,Toba Samosir,Indonesia,2.3328,99.0657,18/03/2020 16:00,Rain,60
Binjai,Sumatera Utara,Kota Binjai,Binjai,Indonesia,3.6001,98.4854,18/03/2020 16:00,Scattered clouds,83
Gunungsitoli,Sumatera Utara,Kota Gunungsitoli,Gunungsitoli,Indonesia,1.2888,97.6143,18/03/2020 16:00,Rain,78
Medan,Sumatera Utara,Kota Medan,Medan,Indonesia,3.5951956,98.6722227,18/03/2020 17:00,Scattered clouds,83
Padangsidempuan,Sumatera Utara,Kota Padangsidempuan,Padang sidempuan,Indonesia,1.37952,99.27146,18/03/2020 16:00,Broken clouds,58
Pematangsiantar,Sumatera Utara,Kota Pematangsiantar,Pematang siantar,Indonesia,2.9595,99.0687,18/03/2020 16:00,Clear sky,55
Sibolga,Sumatera Utara,Kota Sibolga,Sibolga,Indonesia,1.74016,98.78117,18/03/2020 16:00,Broken clouds,64
Tanjungbalai,Sumatera Utara,Kota Tanjungbalai,Tanjung balai,Indonesia,2.96667,99.8,18/03/2020 16:00,Scattered clouds,74
Tebingtinggi,Sumatera Utara,Kota Tebing Tinggi,Tebing Tinggi,Indonesia,3.3285,99.1625,18/03/2020 16:00,Scattered clouds,83
Bantul,Yogyakarta,Kabupaten Bantul,Bantul,Indonesia,-7.88806,110.32889,18/03/2020 16:00,Rain,74
Wonosari,Yogyakarta,Kabupaten Gunungkidul,Gunung kidul,Indonesia,-7.96556,110.60361,18/03/2020 16:00,Rain,74
Wates,Yogyakarta,Kabupaten Kulon Progo,Kulon Progo,Indonesia,-7.85722,110.15694,18/03/2020 16:00,Rain,75
Sleman,Yogyakarta,Kabupaten Sleman,Sleman,Indonesia,-7.71556,110.35556,18/03/2020 16:00,Rain,74
Yogyakarta,Yogyakarta,Kota Yogyakarta,Yogyakarta,Indonesia,-7.80139,110.36472,18/03/2020 05:00,Rain,74
Banda Aceh,Aceh,Kota Banda Aceh,Banda Aceh,Indonesia,5.54167,95.33333,19/03/2020 12:00,Scattered clouds,48
Langsa,Aceh,Kota Langsa,Langsa,Indonesia,4.4683,97.9683,19/03/2020 16:00,Rain,53
Lhokseumawe,Aceh,Kota Lhokseumawe,Lhokseumawe,Indonesia,5.1801,97.1507,19/03/2020 16:00,Broken clouds,60
Sabang,Aceh,Kota Sabang,Sabang,Indonesia,5.88969,95.31644,19/03/2020 16:00,Scattered clouds,69
Meulaboh,Aceh,Kabupaten Aceh Barat,Aceh Barat,Indonesia,4.14402,96.12664,19/03/2020 16:00,Broken clouds,70
Blangpidie,Aceh,Kabupaten Aceh Barat Daya,Aceh Barat Daya,Indonesia,3.73956,96.83608,19/03/2020 16:00,Rain,72
Jantho,Aceh,Kabupaten Aceh Besar,Aceh Besar,Indonesia,5.3334,95.61336,19/03/2020 16:00,Scattered clouds,48
Calang,Aceh,Kabupaten Aceh Jaya,Aceh Jaya,Indonesia,4.6306,95.5754,19/03/2020 16:00,Broken clouds,66
Tapaktuan,Aceh,Kabupaten Aceh Selatan,Aceh Selatan,Indonesia,3.28625,97.16045,19/03/2020 16:00,Rain,72
Singkil,Aceh,Kabupaten Aceh Singkil,Aceh Singkil,Indonesia,2.2874,97.7884,19/03/2020 16:00,Rain,76
Karangbaru,Aceh,Kabupaten Aceh Tamiang,Aceh Tamiang,Indonesia,4.30563,98.02709,19/03/2020 16:00,Rain,53
Takengon,Aceh,Kabupaten Aceh Tengah,Aceh Tengah,Indonesia,4.6212,96.8467,19/03/2020 16:00,Broken clouds,51
Kutacane,Aceh,Kabupaten Aceh Tenggara,Aceh Tenggara,Indonesia,3.52211,97.79625,19/03/2020 16:00,Rain,64
Idi Rayeuk,Aceh,Kabupaten Aceh Timur,Aceh Timur,Indonesia,4.93037,97.79129,19/03/2020 16:00,Scattered clouds,65
Simpang Tiga Redelong,Aceh,Kabupaten Bener Meriah,Bener Meriah,Indonesia,4.722,96.8743,19/03/2020 16:00,Broken clouds,51
Bireun,Aceh,Kabupaten Bireuen,Bireuen,Indonesia,5.203,96.7009,19/03/2020 16:00,Rain,68
Blangkejeren,Aceh,Kabupaten Gayo Lues,Gayo Lues,Indonesia,3.9971,97.3384,19/03/2020 16:00,Broken clouds,52
Suka Makmue,Aceh,Kabupaten Nagan Raya,Nagan Raya,Indonesia,4.00312,96.61762,19/03/2020 16:00,Broken clouds,68
Sigli,Aceh,Kabupaten Pidie,Pidie,Indonesia,5.3848,95.9609,19/03/2020 16:00,Broken clouds,67
Sinabang,Aceh,Kabupaten Simeulue,Simeulue,Indonesia,2.4803,96.3801,19/03/2020 16:00,Rain,82
Mangupura,Bali,Kabupaten Badung,Badung,Indonesia,-8.54389,115.17,19/03/2020 16:00,Scattered clouds,84
Amlapura,Bali,Kabupaten Karangasem,Karangasem,Indonesia,-8.45,115.61667,19/03/2020 16:00,Scattered clouds,84
Semarapura,Bali,Kabupaten Klungkung,Klungkung,Indonesia,-8.5346,115.4022,19/03/2020 16:00,Scattered clouds,84
Denpasar,Bali,Kota Denpasar,Denpasar,Indonesia,-8.663225,115.19754,19/03/2020 16:00,Scattered clouds,84
Bangli,Bali,Kabupaten Bangli,Bangli,Indonesia,-8.4542,115.3545,19/03/2020 16:00,Scattered clouds,84
Singaraja,Bali,Kabupaten Buleleng,Buleleng,Indonesia,-8.112,115.08818,19/03/2020 16:00,Scattered clouds,66
Gianyar,Bali,Kabupaten Gianyar,Gianyar,Indonesia,-8.5435,115.3272,19/03/2020 16:00,Scattered clouds,84
Negara,Bali,Kabupaten Jembrana,Jembrana,Indonesia,-8.35694,114.61694,19/03/2020 16:00,Clear sky,69
Tabanan,Bali,Kabupaten Tabanan,Tabanan,Indonesia,-8.5413,115.12522,19/03/2020 16:00,Scattered clouds,84
Serang,Banten,Kota Serang,Serang,Indonesia,-6.11528,106.15417,19/03/2020 16:00,Few clouds,66
Tangerang,Banten,Kota Tangerang,Tangerang,Indonesia,-6.17806,106.63,19/03/2020 16:00,Few clouds,66
South Tangerang,Banten,Kota Tangerang Selatan,Tangerang Selatan,Indonesia,-6.28862,106.71789,19/03/2020 15:00,Scattered clouds,70
Rangkasbitung,Banten,Kabupaten Lebak,Lebak,Indonesia,-6.3591,106.2494,19/03/2020 16:00,Few clouds,66
Pandeglang,Banten,Kabupaten Pandeglang,Pandeglang,Indonesia,-6.3084,106.1067,19/03/2020 16:00,Few clouds,66
Ciruas,Banten,Kabupaten Serang,Serang,Indonesia,-6.125,106.23278,19/03/2020 16:00,Few clouds,66
Tigaraksa,Banten,Kabupaten Tangerang,Tangerang,Indonesia,-6.22806,106.51389,19/03/2020 16:00,Few clouds,66
Bengkulu,Bengkulu,Kota Bengkulu,Bengkulu,Indonesia,-3.80044,102.26554,19/03/2020 16:00,Rain,74
Manna,Bengkulu,Kabupaten Bengkulu Selatan,Bengkulu Selatan,Indonesia,-4.4651,102.90386,19/03/2020 16:00,Rain,78
Karang Tinggi,Bengkulu,Kabupaten Bengkulu Tengah,Bengkulu Tengah,Indonesia,-3.75,102.4225,19/03/2020 16:00,Rain,74
Argamakmur,Bengkulu,Kabupaten Bengkulu Utara,Bengkulu Utara,Indonesia,-3.4232,102.1891,19/03/2020 16:00,Broken clouds,75
Bintuhan,Bengkulu,Kabupaten Kaur,Kaur,Indonesia,-4.79371,103.34836,19/03/2020 16:00,Rain,79
Kepahiang,Bengkulu,Kabupaten Kepahiang,Kepahiang,Indonesia,-3.6455,102.5712,19/03/2020 16:00,Rain,97
Mukomuko,Bengkulu,Kabupaten Mukomuko,Mukomuko,Indonesia,-2.5689,101.1118,19/03/2020 16:00,Rain,84
Curup,Bengkulu,Kabupaten Rejang Lebong,Rejang Lebong,Indonesia,-3.4703,102.5207,19/03/2020 16:00,Rain,97
Tais,Bengkulu,Kabupaten Seluma,Seluma,Indonesia,-4.07543,102.57739,19/03/2020 16:00,Rain,74
Jakarta,DKI Jakarta,Jakarta,Jakarta,Indonesia,-6.236704,106.79324,19/03/2020 17:00,Scattered clouds,70
Tilamuta,Gorontalo,Kabupaten Boalemo,Boalemo,Indonesia,0.5273,122.3463,19/03/2020 16:00,Rain,87
Limboto,Gorontalo,Kabupaten Gorontalo,Gorontalo,Indonesia,0.627,122.9778,19/03/2020 16:00,Rain,84
Gorontalo,Gorontalo,Kota Gorontalo,Gorontalo,Indonesia,0.5375,123.0625,19/03/2020 16:00,Rain,84
Siulak,Jambi,Kabupaten Kerinci,Kerinci,Indonesia,-1.94667,101.33417,19/03/2020 16:00,Rain,97
Jambi,Jambi,Kota Jambi,Jambi,Indonesia,-1.6,103.61667,19/03/2020 14:00,Rain,79
Sungai Penuh,Jambi,Kota Sungaipenuh,Sungaipenuh,Indonesia,-2.0561,101.3913,19/03/2020 16:00,Rain,97
Muara Bulian,Jambi,Kabupaten Batanghari,Batang hari,Indonesia,-1.71327,103.25902,19/03/2020 16:00,Rain,79
Muara Bungo,Jambi,Kabupaten Bungo,Bungo,Indonesia,-1.49018,102.1149,19/03/2020 16:00,Few clouds,60
Bangko,Jambi,Kabupaten Merangin,Merangin,Indonesia,-2.0796,102.2573,19/03/2020 16:00,Rain,83
Sengeti,Jambi,Kabupaten Muaro Jambi,Muaro Jambi,Indonesia,-1.4772,103.50765,19/03/2020 16:00,Rain,79
Sarolangun,Jambi,Kabupaten Sarolangun,Sarolangun,Indonesia,-2.3121,102.7271,19/03/2020 16:00,Rain,91
Kuala Tungkal,Jambi,Kabupaten Tanjung Jabung Barat,Tanjung Jabung Barat,Indonesia,-0.81623,103.46111,19/03/2020 16:00,Rain,67
Muara Sabak,Jambi,Kabupaten Tanjung Jabung Timur,Tanjung Jabung Timur,Indonesia,-1.13612,103.84987,19/03/2020 16:00,Broken clouds,72
Muara Tebo,Jambi,Kabupaten Tebo,Tebo,Indonesia,-1.476,102.4435,19/03/2020 16:00,Rain,65
Pelabuhanratu,Jawa Barat,Kabupaten Sukabumi,Sukabumi,Indonesia,-6.9875,106.55139,19/03/2020 16:00,Rain,82
Bandung,Jawa Barat,Kota Bandung,Bandung,Indonesia,-6.92222,107.60694,19/03/2020 16:00,Rain,78
Banjar,Jawa Barat,Kota Banjar,Banjar,Indonesia,-7.1955,107.4313,19/03/2020 16:00,Rain,78
Bekasi,Jawa Barat,Kota Bekasi,Bekasi,Indonesia,-6.388776,106.913972,19/03/2020 14:00,Scattered clouds,70
Bogor,Jawa Barat,Kota Bogor,Bogor,Indonesia,-6.5971469,106.8060388,19/03/2020 15:00,Scattered clouds,70
Cimahi,Jawa Barat,Kota Cimahi,Cimahi,Indonesia,-6.87222,107.5425,19/03/2020 16:00,Rain,78
Cirebon,Jawa Barat,Kota Cirebon,Cirebon,Indonesia,-6.7063,108.557,19/03/2020 16:00,Broken clouds,69
Depok,Jawa Barat,Kota Depok,Depok,Indonesia,-6.4,106.81861,19/03/2020 12:00,Scattered clouds,70
Sukabumi,Jawa Barat,Kota Sukabumi,Sukabumi,Indonesia,-6.91806,106.92667,19/03/2020 16:00,Rain,84
Tasikmalaya,Jawa Barat,Kota Tasikmalaya,Tasikmalaya,Indonesia,-7.3274,108.2207,19/03/2020 16:00,Rain,87
Soreang,Jawa Barat,Kabupaten Bandung,Bandung,Indonesia,-7.03306,107.51833,19/03/2020 16:00,Rain,78
Ngamprah,Jawa Barat,Kabupaten Bandung Barat,Bandung Barat,Indonesia,-6.80361,107.27528,19/03/2020 16:00,Rain,78
Cikarang,Jawa Barat,Kabupaten Bekasi,Bekasi,Indonesia,-6.26111,107.15278,19/03/2020 16:00,Scattered clouds,70
Cibinong,Jawa Barat,Kabupaten Bogor,Bogor,Indonesia,-6.48167,106.85417,19/03/2020 16:00,Scattered clouds,70
Ciamis,Jawa Barat,Kabupaten Ciamis,Ciamis,Indonesia,-7.3257,108.3534,19/03/2020 16:00,Rain,87
Cianjur,Jawa Barat,Kabupaten Cianjur,Cianjur,Indonesia,-6.82222,107.13944,19/03/2020 16:00,Scattered clouds,70
Sumber,Jawa Barat,Kabupaten Cirebon,Cirebon,Indonesia,-6.76028,108.48306,19/03/2020 16:00,Rain,89
Indramayu,Jawa Barat,Kabupaten Indramayu,Indramayu,Indonesia,-6.32639,108.32,19/03/2020 16:00,Broken clouds,69
Karawang,Jawa Barat,Kabupaten Karawang,Karawang,Indonesia,-6.30333,107.30556,19/03/2020 16:00,Scattered clouds,70
Kuningan,Jawa Barat,Kabupaten Kuningan,Kuningan,Indonesia,-6.97583,108.48306,19/03/2020 16:00,Rain,89
Majalengka,Jawa Barat,Kabupaten Majalengka,Majalengka,Indonesia,-6.83611,108.22778,19/03/2020 16:00,Rain,88
Parigi,Jawa Barat,Kabupaten Pangandaran,Pangandaran,Indonesia,-7.7015,108.496,19/03/2020 16:00,Rain,87
Purwakarta,Jawa Barat,Kabupaten Purwakarta,Purwakarta,Indonesia,-6.55694,107.44333,19/03/2020 16:00,Scattered clouds,70
Subang,Jawa Barat,Kabupaten Subang,Subang,Indonesia,-7.1277,108.5283,19/03/2020 16:00,Rain,89
Sumedang,Jawa Barat,Kabupaten Sumedang,Sumedang,Indonesia,-6.85861,107.91639,19/03/2020 16:00,Rain,88
Singaparna,Jawa Barat,Kabupaten Tasikmalaya,Tasikmalaya,Indonesia,-7.3515,108.111,19/03/2020 16:00,Rain,87
Brebes,Jawa Tengah,Kabupaten Brebes,Brebes,Indonesia,-6.8691,109.0378,19/03/2020 16:00,Broken clouds,70
Mungkid,Jawa Tengah,Kabupaten Magelang,Magelang,Indonesia,-7.5925,110.21889,19/03/2020 16:00,Rain,83
Magelang,Jawa Tengah,Kota Magelang,Magelang,Indonesia,-7.47056,110.21778,19/03/2020 16:00,Rain,83
Pekalongan,Jawa Tengah,Kota Pekalongan,Pekalongan,Indonesia,-6.8886,109.6753,19/03/2020 16:00,Rain,74
Salatiga,Jawa Tengah,Kota Salatiga,Salatiga,Indonesia,-7.33194,110.49278,19/03/2020 16:00,Rain,83
Semarang,Jawa Tengah,Kota Semarang,Semarang,Indonesia,-6.99306,110.42083,19/03/2020 16:00,Rain,83
Surakarta,Jawa Tengah,Kota Surakarta,Surakarta,Indonesia,-7.55611,110.83167,19/03/2020 16:00,Rain,79
Tegal,Jawa Tengah,Kota Tegal,Tegal,Indonesia,-6.8694,109.1402,19/03/2020 16:00,Broken clouds,70
Banjarnegara,Jawa Tengah,Kabupaten Banjarnegara,Banjarnegara,Indonesia,-7.39611,109.69611,19/03/2020 16:00,Rain,88
Purwokerto,Jawa Tengah,Kabupaten Banyumas,Banyumas,Indonesia,-7.42139,109.23444,19/03/2020 16:00,Rain,83
Batang,Jawa Tengah,Kabupaten Batang,Batang,Indonesia,-6.4846,110.7083,19/03/2020 16:00,Rain,83
Blora,Jawa Tengah,Kabupaten Blora,Blora,Indonesia,-6.9698,111.4186,19/03/2020 16:00,Rain,78
Boyolali,Jawa Tengah,Kabupaten Boyolali,Boyolali,Indonesia,-7.53306,110.59583,19/03/2020 16:00,Rain,79
Cilacap,Jawa Tengah,Kabupaten Cilacap,Cilacap,Indonesia,-7.72639,109.00944,19/03/2020 16:00,Rain,83
Demak,Jawa Tengah,Kabupaten Demak,Demak,Indonesia,-6.8909,110.6396,19/03/2020 16:00,Rain,83
Purwodadi,Jawa Tengah,Kabupaten Grobogan,Grobogan,Indonesia,-7.0868,110.9158,19/03/2020 16:00,Rain,83
Jepara,Jawa Tengah,Kabupaten Jepara,Jepara,Indonesia,-6.5924,110.671,19/03/2020 16:00,Rain,83
Karanganyar,Jawa Tengah,Kabupaten Karanganyar,Karanganyar,Indonesia,-7.59833,110.94444,19/03/2020 16:00,Rain,79
Kebumen,Jawa Tengah,Kabupaten Kebumen,Kebumen,Indonesia,-7.66861,109.65361,19/03/2020 16:00,Rain,88
Kendal,Jawa Tengah,Kabupaten Kendal,Kendal,Indonesia,-6.9213,110.2022,19/03/2020 16:00,Rain,83
Klaten,Jawa Tengah,Kabupaten Klaten,Klaten,Indonesia,-7.70583,110.60639,19/03/2020 16:00,Rain,79
Kudus,Jawa Tengah,Kabupaten Kudus,Kudus,Indonesia,-6.8048,110.8405,19/03/2020 16:00,Rain,83
Pati,Jawa Tengah,Kabupaten Pati,Pati,Indonesia,-6.7559,111.038,19/03/2020 16:00,Rain,79
Kajen,Jawa Tengah,Kabupaten Pekalongan,Pekalongan,Indonesia,-7.0324,109.5773,19/03/2020 16:00,Rain,74
Pemalang,Jawa Tengah,Kabupaten Pemalang,Pemalang,Indonesia,-6.89193,109.38263,19/03/2020 16:00,Rain,74
Purbalingga,Jawa Tengah,Kabupaten Purbalingga,Purbalingga,Indonesia,-7.38806,109.36389,19/03/2020 16:00,Rain,88
Purworejo,Jawa Tengah,Kabupaten Purworejo,Purworejo,Indonesia,-7.71139,110.01028,19/03/2020 16:00,Rain,93
Rembang,Jawa Tengah,Kabupaten Rembang,Rembang,Indonesia,-6.707,111.3498,19/03/2020 16:00,Broken clouds,67
Ungaran,Jawa Tengah,Kabupaten Semarang,Semarang,Indonesia,-7.13972,110.405,19/03/2020 16:00,Rain,83
Sragen,Jawa Tengah,Kabupaten Sragen,Sragen,Indonesia,-7.42639,111.02222,19/03/2020 16:00,Rain,79
Sukoharjo,Jawa Tengah,Kabupaten Sukoharjo,Sukoharjo,Indonesia,-7.6725,110.83806,19/03/2020 16:00,Rain,79
Slawi,Jawa Tengah,Kabupaten Tegal,Tegal,Indonesia,-6.9816,109.1407,19/03/2020 16:00,Broken clouds,70
Temanggung,Jawa Tengah,Kabupaten Temanggung,Temanggung,Indonesia,-7.31917,110.19278,19/03/2020 16:00,Rain,83
Wonogiri,Jawa Tengah,Kabupaten Wonogiri,Wonogiri,Indonesia,-7.81444,110.92056,19/03/2020 16:00,Rain,79
Wonosobo,Jawa Tengah,Kabupaten Wonosobo,Wonosobo,Indonesia,-7.35889,109.90306,19/03/2020 16:00,Rain,83
Ngasem,Jawa Timur,Kabupaten Kediri,Kediri,Indonesia,-7.80583,112.04083,19/03/2020 16:00,Rain,86
Caruban,Jawa Timur,Kabupaten Madiun,Madiun,Indonesia,-7.5447,111.6566,19/03/2020 16:00,Rain,82
Mojosari,Jawa Timur,Kabupaten Mojokerto,Mojokerto,Indonesia,-7.5194,112.5597,19/03/2020 16:00,Rain,82
Bangil,Jawa Timur,Kabupaten Pasuruan,Pasuruan,Indonesia,-7.59939,112.8186,19/03/2020 16:00,Rain,72
Batu,Jawa Timur,Kota Batu,Batu,Indonesia,-7.87,112.52833,19/03/2020 16:00,Rain,95
Blitar,Jawa Timur,Kota Blitar,Blitar,Indonesia,-8.0983,112.1681,19/03/2020 16:00,Rain,86
Kediri,Jawa Timur,Kota Kediri,Kediri,Indonesia,-7.81667,112.01667,19/03/2020 16:00,Rain,86
Madiun,Jawa Timur,Kota Madiun,Madiun,Indonesia,-7.6298,111.5239,19/03/2020 16:00,Rain,82
Malang,Jawa Timur,Kota Malang,Malang,Indonesia,-7.9797,112.6304,19/03/2020 12:00,Rain,95
Mojokerto,Jawa Timur,Kota Mojokerto,Mojokerto,Indonesia,-7.4664,112.4338,19/03/2020 16:00,Rain,82
Pasuruan,Jawa Timur,Kota Pasuruan,Pasuruan,Indonesia,-7.6453,112.9075,19/03/2020 16:00,Rain,72
Probolinggo,Jawa Timur,Kota Probolinggo,Probolinggo,Indonesia,-7.7543,113.2159,19/03/2020 16:00,Rain,98
Surabaya,Jawa Timur,Kota Surabaya,Surabaya,Indonesia,-7.2800904,112.7946058,19/03/2020 16:00,Rain,72
Bangkalan,Jawa Timur,Kabupaten Bangkalan,Bangkalan,Indonesia,-7.0455,112.7351,19/03/2020 16:00,Rain,80
Banyuwangi,Jawa Timur,Kabupaten Banyuwangi,Banyuwangi,Indonesia,-8.2325,114.35755,19/03/2020 16:00,Broken clouds,69
Bojonegoro,Jawa Timur,Kabupaten Bojonegoro,Bojonegoro,Indonesia,-7.1502,111.8817,19/03/2020 16:00,Rain,77
Bondowoso,Jawa Timur,Kabupaten Bondowoso,Bondowoso,Indonesia,-7.91346,113.82145,19/03/2020 16:00,Rain,93
Gresik,Jawa Timur,Kabupaten Gresik,Gresik,Indonesia,-7.15389,112.65611,19/03/2020 16:00,Rain,80
Jember,Jawa Timur,Kabupaten Jember,Jember,Indonesia,-8.17211,113.69953,19/03/2020 16:00,Rain,96
Jombang,Jawa Timur,Kabupaten Jombang,Jombang,Indonesia,-7.54595,112.23307,19/03/2020 16:00,Rain,86
Lamongan,Jawa Timur,Kabupaten Lamongan,Lamongan,Indonesia,-7.11667,112.41667,19/03/2020 16:00,Rain,80
Lumajang,Jawa Timur,Kabupaten Lumajang,Lumajang,Indonesia,-8.1335,113.2248,19/03/2020 16:00,Rain,98
Magetan,Jawa Timur,Kabupaten Magetan,Magetan,Indonesia,-7.65667,111.33139,19/03/2020 16:00,Rain,79
Kepanjen,Jawa Timur,Kabupaten Malang,Malang,Indonesia,-8.1303,112.5727,19/03/2020 16:00,Rain,95
Nganjuk,Jawa Timur,Kabupaten Nganjuk,Nganjuk,Indonesia,-7.6051,111.9035,19/03/2020 16:00,Rain,86
Pacitan,Jawa Timur,Kabupaten Pacitan,Pacitan,Indonesia,-8.19389,111.10333,19/03/2020 16:00,Rain,81
Pamekasan,Jawa Timur,Kabupaten Pamekasan,Pamekasan,Indonesia,-7.1568,113.4746,19/03/2020 16:00,Rain,79
Ponorogo,Jawa Timur,Kabupaten Ponorogo,Ponorogo,Indonesia,-7.8685,111.462,19/03/2020 16:00,Rain,81
Kraksaan,Jawa Timur,Kabupaten Probolinggo,Probolinggo,Indonesia,-7.75845,113.39624,19/03/2020 16:00,Rain,96
Sampang,Jawa Timur,Kabupaten Sampang,Sampang,Indonesia,-7.1872,113.2394,19/03/2020 16:00,Rain,83
Sidoarjo,Jawa Timur,Kabupaten Sidoarjo,Sidoarjo,Indonesia,-7.4478,112.7183,19/03/2020 16:00,Rain,82
Situbondo,Jawa Timur,Kabupaten Situbondo,Situbondo,Indonesia,-7.70623,114.00976,19/03/2020 16:00,Broken clouds,68
Sumenep,Jawa Timur,Kabupaten Sumenep,Sumenep,Indonesia,-7.01667,113.86667,19/03/2020 16:00,Broken clouds,66
Trenggalek,Jawa Timur,Kabupaten Trenggalek,Trenggalek,Indonesia,-8.0764,111.70641,19/03/2020 16:00,Rain,81
Tuban,Jawa Timur,Kabupaten Tuban,Tuban,Indonesia,-6.8976,112.0649,19/03/2020 16:00,Rain,77
Tulungagung,Jawa Timur,Kabupaten Tulungagung,Tulungagung,Indonesia,-8.0657,111.9025,19/03/2020 16:00,Rain,86
Singkawang,Kalimantan Barat,Kota Singkawang,Singkawang,Indonesia,0.90925,108.98463,19/03/2020 16:00,Rain,85
Bengkayang,Kalimantan Barat,Kabupaten Bengkayang,Bengkayang,Indonesia,0.83194,109.43589,19/03/2020 16:00,Rain,95
Putussibau,Kalimantan Barat,Kabupaten Kapuas Hulu,Kapuas Hulu,Indonesia,0.83333,112.93333,19/03/2020 16:00,Broken clouds,62
Sukadana,Kalimantan Barat,Kabupaten Kayong Utara,Kayong Utara,Indonesia,-1.25,109.95,19/03/2020 16:00,Broken clouds,76
Ketapang,Kalimantan Barat,Kabupaten Ketapang,Ketapang,Indonesia,-1.83862,109.97728,19/03/2020 16:00,Rain,75
Sungai Raya,Kalimantan Barat,Kabupaten Kubu Raya,Kubu Raya,Indonesia,0.7,108.9,19/03/2020 16:00,Rain,90
Ngabang,Kalimantan Barat,Kabupaten Landak,Landak,Indonesia,0.38333,109.95,19/03/2020 16:00,Rain,94
Nangah Pinoh,Kalimantan Barat,Kabupaten Melawi,Melawi,Indonesia,-0.33333,111.73333,19/03/2020 16:00,Rain,89
Mempawah,Kalimantan Barat,Kabupaten Mempawah,Mempawah,Indonesia,0.37102,108.97013,19/03/2020 16:00,Rain,90
Sambas,Kalimantan Barat,Kabupaten Sambas,Sambas,Indonesia,1.33333,109.25,19/03/2020 16:00,Rain,95
Sanggau,Kalimantan Barat,Kabupaten Sanggau,Sanggau,Indonesia,0.13333,110.6,19/03/2020 16:00,Rain,93
Sekadau,Kalimantan Barat,Kabupaten Sekadau,Sekadau,Indonesia,0.01667,110.9,19/03/2020 16:00,Rain,63
Sintang,Kalimantan Barat,Kabupaten Sintang,Sintang,Indonesia,0.06667,111.5,19/03/2020 16:00,Rain,90
Banjarbaru,Kalimantan Selatan,Kota Banjarbaru,Banjarbaru,Indonesia,-3.4572422,114.8103181,19/03/2020 16:00,Rain,88
Banjarmasin,Kalimantan Selatan,Kota Banjarmasin,Banjarmasin,Indonesia,-3.31987,114.59075,19/03/2020 12:00,Rain,76
Paringin,Kalimantan Selatan,Kabupaten Balangan,Balangan,Indonesia,-2.3357,115.4749,19/03/2020 16:00,Rain,73
Martapura,Kalimantan Selatan,Kabupaten Banjar,Banjar,Indonesia,-3.4109,114.8642,19/03/2020 16:00,Rain,88
Marabahan,Kalimantan Selatan,Kabupaten Barito Kuala,Barito Kuala,Indonesia,-3.0136,114.7687,19/03/2020 16:00,Rain,67
Kandangan,Kalimantan Selatan,Kabupaten Hulu Sungai Selatan,Hulu Sungai Selatan,Indonesia,-2.7837,115.2772,19/03/2020 16:00,Rain,93
Barabai,Kalimantan Selatan,Kabupaten Hulu Sungai Tengah,Hulu Sungai Tengah,Indonesia,-2.58333,115.38333,19/03/2020 16:00,Rain,73
Amuntai,Kalimantan Selatan,Kabupaten Hulu Sungai Utara,Hulu Sungai Utara,Indonesia,-2.41773,115.24941,19/03/2020 16:00,Rain,73
Tanjung,Kalimantan Selatan,Kabupaten Tabalong,Tabalong,Indonesia,-2.1709,115.4077,19/03/2020 16:00,Rain,65
Batulicin,Kalimantan Selatan,Kabupaten Tanah Bumbu,Tanah Bumbu,Indonesia,-3.42022,116.00611,19/03/2020 16:00,Rain,83
Pelaihari,Kalimantan Selatan,Kabupaten Tanah Laut,Tanah Laut,Indonesia,-3.7987,114.7788,19/03/2020 16:00,Rain,81
Rantau,Kalimantan Selatan,Kabupaten Tapin,Tapin,Indonesia,-2.9334,115.1621,19/03/2020 16:00,Rain,67
Tamiang Layang,Kalimantan Tengah,Kabupaten Barito Timur,Barito Timur,Indonesia,-2.1236,115.1958,19/03/2020 16:00,Broken clouds,55
Puruk Cahu,Kalimantan Tengah,Kabupaten Murung Raya,Murung Raya,Indonesia,-0.58333,114.58333,19/03/2020 16:00,Scattered clouds,52
Palangkaraya,Kalimantan Tengah,Kota Palangka Raya,Palangka Raya,Indonesia,-2.2161048,113.913977,19/03/2020 16:00,Rain,65
Buntok,Kalimantan Tengah,Kabupaten Barito Selatan,Barito Selatan,Indonesia,-3.55,114.767,19/03/2020 16:00,Rain,88
Muara Teweh,Kalimantan Tengah,Kabupaten Barito Utara,Barito Utara,Indonesia,-0.9403,114.8939,19/03/2020 16:00,Scattered clouds,48
Kualakapuas,Kalimantan Tengah,Kabupaten Kapuas,Kapuas,Indonesia,-3.00913,114.38759,19/03/2020 16:00,Rain,88
Pangkalan Bun,Kalimantan Tengah,Kabupaten Kotawaringin Barat,Kotawaringin Barat,Indonesia,-2.688962,111.622398,19/03/2020 16:00,Rain,79
Sampit,Kalimantan Tengah,Kabupaten Kotawaringin Timur,Kotawaringin Timur,Indonesia,-2.5315,112.9496,19/03/2020 16:00,Rain,94
Nanga Bulik,Kalimantan Tengah,Kabupaten Lamandau,Lamandau,Indonesia,-2.1624,111.4885,19/03/2020 16:00,Rain,93
Pulang Pisau,Kalimantan Tengah,Kabupaten Pulang Pisau,Pulang Pisau,Indonesia,-2.7671,114.2406,19/03/2020 16:00,Rain,91
Kuala Pembuang,Kalimantan Tengah,Kabupaten Seruyan,Seruyan,Indonesia,-3.39228,112.55049,19/03/2020 16:00,Broken clouds,66
Ujoh Bilang,Kalimantan Timur,Kabupaten Mahakam Ulu,Mahakam Ulu,Indonesia,0.55,115.25,19/03/2020 16:00,Rain,74
Tana Paser,Kalimantan Timur,Kabupaten Paser,Paser,Indonesia,-1.9051,116.1913,19/03/2020 16:00,Rain,85
Balikpapan,Kalimantan Timur,Kota Balikpapan,Balikpapan,Indonesia,-1.26753,116.82887,19/03/2020 16:00,Scattered clouds,76
Bontang,Kalimantan Timur,Kota Bontang,Bontang,Indonesia,0.1324,117.4854,19/03/2020 16:00,Clear sky,75
Samarinda,Kalimantan Timur,Kota Samarinda,Samarinda,Indonesia,-0.4948232,117.1436154,19/03/2020 16:00,Broken clouds,51
Sendawar,Kalimantan Timur,Kabupaten Kutai Barat,Kutai Barat,Indonesia,-0.23639,115.69472,19/03/2020 16:00,Scattered clouds,49
Sangatta,Kalimantan Timur,Kabupaten Kutai Timur,Kutai Timur,Indonesia,0.5049,117.5279,19/03/2020 16:00,Rain,73
Penajam,Kalimantan Timur,Kabupaten Penajam Paser Utara,Penajam Paser Utara,Indonesia,-1.24919,116.76968,19/03/2020 16:00,Scattered clouds,76
Tanjung Selor,Kalimantan Utara,Kabupaten Bulungan,Bulungan,Indonesia,2.8375,117.36528,19/03/2020 16:00,Broken clouds,72
Tarakan,Kalimantan Utara,Kota Tarakan,Tarakan,Indonesia,3.31332,117.59152,19/03/2020 16:00,Few clouds,71
Malinau,Kalimantan Utara,Kabupaten Malinau,Malinau,Indonesia,3.58855,116.62391,19/03/2020 16:00,Broken clouds,65
Tideng Pale,Kalimantan Utara,Kabupaten Tana Tidung,Tana Tidung,Indonesia,3.60815,116.90668,19/03/2020 16:00,Broken clouds,57
Muntok,Kepulauan Bangka Belitung,Kabupaten Bangka Barat,Bangka Barat,Indonesia,-2.06719,105.16228,19/03/2020 16:00,Broken clouds,77
Koba,Kepulauan Bangka Belitung,Kabupaten Bangka Tengah,Bangka Tengah,Indonesia,-2.49313,106.4081,19/03/2020 16:00,Broken clouds,76
Manggar,Kepulauan Bangka Belitung,Kabupaten Belitung Timur,Belitung Timur,Indonesia,-2.88333,108.26667,19/03/2020 16:00,Rain,78
Pangkalpinang,Kepulauan Bangka Belitung,Kota Pangkalpinang,Pangkalpinang,Indonesia,-2.12914,106.11377,19/03/2020 16:00,Rain,87
Sungailiat,Kepulauan Bangka Belitung,Kabupaten Bangka,Bangka,Indonesia,-1.85442,106.12215,19/03/2020 16:00,Rain,87
Tanjung Pandan,Kepulauan Bangka Belitung,Kabupaten Belitung,Belitung,Indonesia,-2.73353,107.63477,19/03/2020 16:00,Rain,78
Kijang,Kepulauan Riau,Kabupaten Bintan,Bintan,Indonesia,0.9,104.63333,19/03/2020 16:00,Few clouds,62
Tarempa,Kepulauan Riau,Kabupaten Kepulauan Anambas,Kepulauan Anambas,Indonesia,3.21583,106.21722,19/03/2020 16:00,Broken clouds,69
Daik Lingga,Kepulauan Riau,Kabupaten Lingga,Lingga,Indonesia,-0.21451,104.61824,19/03/2020 16:00,Broken clouds,77
Ranai,Kepulauan Riau,Kabupaten Natuna,Natuna,Indonesia,3.9384,108.38401,19/03/2020 16:00,Broken clouds,71
Batam,Kepulauan Riau,Kota Batam,Batam,Indonesia,1.1300779,104.0529207,19/03/2020 12:00,Few clouds,62
Tanjung Pinang,Kepulauan Riau,Kota Tanjungpinang,Tanjung pinang,Indonesia,0.91667,104.45833,19/03/2020 16:00,Few clouds,62
Liwa,Lampung,Kabupaten Lampung Barat,Lampung Barat,Indonesia,-5.03554,104.07595,19/03/2020 16:00,Rain,98
Kalianda,Lampung,Kabupaten Lampung Selatan,Lampung Selatan,Indonesia,-5.73805,105.5916,19/03/2020 16:00,Rain,85
Krui,Lampung,Kabupaten Pesisir Barat,Pesisir Barat,Indonesia,-5.18251,103.93746,19/03/2020 16:00,Rain,98
Bandar Lampung,Lampung,Kota Bandar Lampung,Bandar Lampung,Indonesia,-5.42917,105.26111,19/03/2020 12:00,Rain,85
Metro,Lampung,Kota Metro,Metro,Indonesia,-5.11306,105.30667,19/03/2020 16:00,Rain,67
Gunung Sugih,Lampung,Kabupaten Lampung Tengah,Lampung Tengah,Indonesia,-4.9753,105.21396,19/03/2020 16:00,Rain,75
Sukadana,Lampung,Kabupaten Lampung Timur,Lampung Timur,Indonesia,-1.25,109.95,19/03/2020 16:00,Broken clouds,76
Kotabumi,Lampung,Kabupaten Lampung Utara,Lampung Utara,Indonesia,-4.82505,104.8817,19/03/2020 16:00,Rain,75
Gedong Tataan,Lampung,Kabupaten Pesawaran,Pesawaran,Indonesia,-5.3827,105.0955,19/03/2020 16:00,Rain,93
Pringsewu,Lampung,Kabupaten Pringsewu,Pringsewu,Indonesia,-5.35822,104.97441,19/03/2020 16:00,Rain,93
Kota Agung,Lampung,Kabupaten Tanggamus,Tanggamus,Indonesia,-5.50257,104.64538,19/03/2020 16:00,Rain,94
Menggala,Lampung,Kabupaten Tulang Bawang,Tulang Bawang,Indonesia,-4.47131,105.25214,19/03/2020 16:00,Few clouds,60
Blambangan Umpu,Lampung,Kabupaten Way Kanan,Way Kanan,Indonesia,-4.50263,104.51926,19/03/2020 16:00,Rain,73
Tiakur,Maluku,Kabupaten Maluku Barat Daya,Maluku Barat Daya,Indonesia,-8.15,127.795,19/03/2020 16:00,Clear sky,69
Piru,Maluku,Kabupaten Seram Bagian Barat,Seram Bagian Barat,Indonesia,-3.0618,128.1945,19/03/2020 16:00,Rain,73
Bula,Maluku,Kabupaten Seram Bagian Timur,Seram Bagian Timur,Indonesia,-3.1112,130.4954,19/03/2020 16:00,Scattered clouds,68
Ambon,Maluku,Kota Ambon,Ambon,Indonesia,-3.69583,128.18333,19/03/2020 16:00,Shower rain,74
Tual,Maluku,Kota Tual,Tual,Indonesia,-5.62878,132.75229,19/03/2020 16:00,Rain,69
Namlea,Maluku,Kabupaten Buru,Buru,Indonesia,-3.26194,127.09292,19/03/2020 16:00,Rain,88
Namrole,Maluku,Kabupaten Buru Selatan,Buru Selatan,Indonesia,-3.84548,126.72619,19/03/2020 16:00,Broken clouds,69
Dobo,Maluku,Kabupaten Kepulauan Aru,Kepulauan Aru,Indonesia,-5.76092,134.23405,19/03/2020 16:00,Rain,70
Masohi,Maluku,Kabupaten Maluku Tengah,Maluku Tengah,Indonesia,-3.29833,128.96882,19/03/2020 16:00,Broken clouds,66
Langgur,Maluku,Kabupaten Maluku Tenggara,Maluku Tenggara,Indonesia,-5.66689,132.73762,19/03/2020 16:00,Broken clouds,68
Daruba,Maluku Utara,Kabupaten Pulau Morotai,Pulau Morotai,Indonesia,2.05049,128.29398,19/03/2020 16:00,Broken clouds,76
Ternate,Maluku Utara,Kota Ternate,Ternate,Indonesia,0.79065,127.38424,19/03/2020 16:00,Rain,88
Jailolo,Maluku Utara,Kabupaten Halmahera Barat,Halmahera Barat,Indonesia,1.06504,127.46786,19/03/2020 16:00,Rain,88
Weda,Maluku Utara,Kabupaten Halmahera Tengah,Halmahera Tengah,Indonesia,0.32952,127.87389,19/03/2020 16:00,Rain,84
Maba,Maluku Utara,Kabupaten Halmahera Timur,Halmahera Timur,Indonesia,0.7007,128.29197,19/03/2020 16:00,Broken clouds,81
Labuha,Maluku Utara,Kabupaten Halmahera Selatan,Halmahera Selatan,Indonesia,-0.62546,127.47808,19/03/2020 16:00,Rain,85
Tobelo,Maluku Utara,Kabupaten Halmahera Utara,Halmahera Utara,Indonesia,1.72837,128.00948,19/03/2020 16:00,Rain,80
Sanana,Maluku Utara,Kabupaten Kepulauan Sula,Kepulauan Sula,Indonesia,-2.05853,125.97786,19/03/2020 16:00,Rain,75
Bobong,Maluku Utara,Kabupaten Pulau Taliabu,Pulau Taliabu,Indonesia,-1.94625,124.38394,19/03/2020 16:00,Rain,80
Woha,Nusa Tenggara Barat,Kabupaten Bima,Bima,Indonesia,-8.61802,118.64788,19/03/2020 16:00,Rain,88
Gerung,Nusa Tenggara Barat,Kabupaten Lombok Barat,Lombok Barat,Indonesia,-8.683,116.1253,19/03/2020 16:00,Few clouds,79
Bima,Nusa Tenggara Barat,Kota Bima,Bima,Indonesia,-8.46006,118.72667,19/03/2020 16:00,Rain,88
Mataram,Nusa Tenggara Barat,Kota Mataram,Mataram,Indonesia,-8.58333,116.11667,19/03/2020 12:00,Few clouds,79
Dompu,Nusa Tenggara Barat,Kabupaten Dompu,Dompu,Indonesia,-8.5365,118.4634,19/03/2020 16:00,Rain,88
Praya,Nusa Tenggara Barat,Kabupaten Lombok Tengah,Lombok Tengah,Indonesia,-8.70536,116.27036,19/03/2020 16:00,Few clouds,79
Selong,Nusa Tenggara Barat,Kabupaten Lombok Timur,Lombok Timur,Indonesia,-8.6503,116.5318,19/03/2020 16:00,Few clouds,79
Tanjung,Nusa Tenggara Barat,Kabupaten Lombok Utara,Lombok Utara,Indonesia,-2.1709,115.4077,19/03/2020 16:00,Rain,65
Sumbawa Besar,Nusa Tenggara Barat,Kabupaten Sumbawa,Sumbawa,Indonesia,-8.49317,117.42024,19/03/2020 16:00,Broken clouds,75
Taliwang,Nusa Tenggara Barat,Kabupaten Sumbawa Barat,Sumbawa Barat,Indonesia,-8.7449,116.8532,19/03/2020 16:00,Few clouds,79
Oelamasi,Nusa Tenggara Timur,Kabupaten Kupang,Kupang,Indonesia,-10.0642,123.8787,19/03/2020 16:00,Few clouds,62
Kupang,Nusa Tenggara Timur,Kota Kupang,Kupang,Indonesia,-10.17083,123.60694,18/03/2020 21:00,Few clouds,62
Kalabahi,Nusa Tenggara Timur,Kabupaten Alor,Alor,Indonesia,-8.2151,124.5458,19/03/2020 16:00,Broken clouds,66
Atambua,Nusa Tenggara Timur,Kabupaten Belu,Belu,Indonesia,-9.10611,124.8925,19/03/2020 16:00,Rain,80
Ende,Nusa Tenggara Timur,Kabupaten Ende,Ende,Indonesia,-8.8432,121.6623,19/03/2020 16:00,Broken clouds,65
Larantuka,Nusa Tenggara Timur,Kabupaten Flores Timur,Flores Timur,Indonesia,-8.3468,122.9771,19/03/2020 16:00,Broken clouds,67
Lewoleba,Nusa Tenggara Timur,Kabupaten Lembata,Lembata,Indonesia,-8.3723,123.418,19/03/2020 16:00,Few clouds,66
Betun,Nusa Tenggara Timur,Kabupaten Malaka,Malaka,Indonesia,-9.56722,124.9075,19/03/2020 16:00,Few clouds,68
Ruteng,Nusa Tenggara Timur,Kabupaten Manggarai,Manggarai,Indonesia,-8.61139,120.46444,19/03/2020 16:00,Rain,92
Labuan Bajo,Nusa Tenggara Timur,Kabupaten Manggarai Barat,Manggarai Barat,Indonesia,-8.4964,119.8877,19/03/2020 16:00,Rain,79
Borong,Nusa Tenggara Timur,Kabupaten Manggarai Timur,Manggarai Timur,Indonesia,-8.8125,120.60972,19/03/2020 16:00,Broken clouds,68
Mbay,Nusa Tenggara Timur,Kabupaten Nagekeo,Nagekeo,Indonesia,-8.5613,121.2717,19/03/2020 16:00,Rain,71
Bajawa,Nusa Tenggara Timur,Kabupaten Ngada,Ngada,Indonesia,-8.7848,120.9744,19/03/2020 16:00,Broken clouds,72
Baa,Nusa Tenggara Timur,Kabupaten Rote Ndao,Rote Ndao,Indonesia,-10.7263,123.0492,19/03/2020 16:00,Clear sky,71
Seba,Nusa Tenggara Timur,Kabupaten Sabu Raijua,Sabu Raijua,Indonesia,-10.4933,121.8393,19/03/2020 16:00,Clear sky,71
Maumere,Nusa Tenggara Timur,Kabupaten Sikka,Sikka,Indonesia,-8.6199,122.2111,19/03/2020 16:00,Rain,75
Waikabubak,Nusa Tenggara Timur,Kabupaten Sumba Barat,Sumba Barat,Indonesia,-9.6475,119.3889,19/03/2020 16:00,Rain,82
Tambolaka,Nusa Tenggara Timur,Kabupaten Sumba Barat Daya,Sumba Barat Daya,Indonesia,-9.4283,119.238,19/03/2020 16:00,Rain,70
Waibakul,Nusa Tenggara Timur,Kabupaten Sumba Tengah,Sumba Tengah,Indonesia,-9.63556,119.41333,19/03/2020 16:00,Rain,82
Waingapu,Nusa Tenggara Timur,Kabupaten Sumba Timur,Sumba Timur,Indonesia,-9.6567,120.2641,19/03/2020 16:00,Broken clouds,68
Soe,Nusa Tenggara Timur,Kabupaten Timor Tengah Selatan,Timor Tengah Selatan,Indonesia,-9.86071,124.28395,19/03/2020 16:00,Broken clouds,74
Kefamenanu,Nusa Tenggara Timur,Kabupaten Timor Tengah Utara,Timor Tengah Utara,Indonesia,-9.44667,124.47806,19/03/2020 16:00,Broken clouds,83
Jayapura,Papua,Kota Jayapura,Jayapura,Indonesia,-2.53371,140.71813,19/03/2020 11:00,Broken clouds,81
Agats,Papua,Kabupaten Asmat,Asmat,Indonesia,-5.54505,138.13522,19/03/2020 16:00,Rain,78
Biak,Papua,Kabupaten Biak Numfor,Biak Numfor,Indonesia,-1.1767,136.082,19/03/2020 16:00,Rain,95
Tanah Merah,Papua,Kabupaten Boven Digoel,Boven Digoel,Indonesia,-6.09756,140.30649,19/03/2020 16:00,Rain,93
Tigi,Papua,Kabupaten Deiyai,Deiyai,Indonesia,-3.96667,136.26667,19/03/2020 16:00,Rain,98
Kigamani,Papua,Kabupaten Dogiyai,Dogiyai,Indonesia,-3.96139,135.94361,19/03/2020 16:00,Rain,98
Sugapa,Papua,Kabupaten Intan Jaya,Intan Jaya,Indonesia,-3.74306,137.05,19/03/2020 16:00,Rain,98
Sentani,Papua,Kabupaten Jayapura,Jayapura,Indonesia,-2.5691,140.5127,19/03/2020 16:00,Broken clouds,81
Wamena,Papua,Kabupaten Jayawijaya,Jayawijaya,Indonesia,-4.09512,138.94492,19/03/2020 16:00,Rain,98
Waris,Papua,Kabupaten Keerom,Keerom,Indonesia,-3.11667,140.88333,19/03/2020 16:00,Rain,96
Serui,Papua,Kabupaten Kepulauan Yapen,Kepulauan Yapen,Indonesia,-1.8802,136.2426,19/03/2020 16:00,Scattered clouds,72
Tiom,Papua,Kabupaten Lanny Jaya,Lanny Jaya,Indonesia,-3.92361,138.45472,19/03/2020 16:00,Rain,98
Burmeso,Papua,Kabupaten Mamberamo Raya,Mamberamo Raya,Indonesia,-2.32611,138.04139,19/03/2020 16:00,Rain,95
Kobakma,Papua,Kabupaten Mamberamo Tengah,Mamberamo Tengah,Indonesia,-3.66417,139.065,19/03/2020 16:00,Rain,94
Kepi,Papua,Kabupaten Mappi,Mappi,Indonesia,-6.52461,139.32224,19/03/2020 16:00,Rain,93
Nabire,Papua,Kabupaten Nabire,Nabire,Indonesia,-3.35989,135.50074,19/03/2020 16:00,Broken clouds,86
Kenyam,Papua,Kabupaten Nduga,Nduga,Indonesia,-4.59972,138.38417,19/03/2020 16:00,Rain,96
Enarotali,Papua,Kabupaten Paniai,Paniai,Indonesia,-3.93032,136.37651,19/03/2020 16:00,Rain,98
Oksibil,Papua,Kabupaten Pegunungan Bintang,Pegunungan Bintang,Indonesia,-4.90417,140.62972,19/03/2020 16:00,Rain,99
Ilaga,Papua,Kabupaten Puncak,Puncak,Indonesia,-3.95,137.4,19/03/2020 16:00,Rain,99
Mulia,Papua,Kabupaten Puncak Jaya,Puncak Jaya,Indonesia,-3.71472,137.98528,19/03/2020 16:00,Rain,96
Sarmi,Papua,Kabupaten Sarmi,Sarmi,Indonesia,-1.85302,138.75093,19/03/2020 16:00,Broken clouds,80
Sorendiweri,Papua,Kabupaten Supiori,Supiori,Indonesia,-0.73389,135.73611,19/03/2020 16:00,Rain,70
Karubaga,Papua,Kabupaten Tolikara,Tolikara,Indonesia,-3.6994,138.4579,19/03/2020 16:00,Rain,96
Botawa,Papua,Kabupaten Waropen,Waropen,Indonesia,-2.21,136.44722,19/03/2020 16:00,Scattered clouds,70
Sumohai,Papua,Kabupaten Yahukimo,Yahukimo,Indonesia,-4.68944,139.35472,19/03/2020 16:00,Rain,99
Elelim,Papua,Kabupaten Yalimo,Yalimo,Indonesia,-3.759,139.7075,19/03/2020 16:00,Rain,93
Aimas,Papua Barat,Kabupaten Sorong,Sorong,Indonesia,-0.95698,131.33535,19/03/2020 16:00,Rain,95
Sorong,Papua Barat,Kota Sorong,Sorong,Indonesia,-0.87956,131.26104,19/03/2020 16:00,Rain,95
Fakfak,Papua Barat,Kabupaten Fakfak,Fakfak,Indonesia,-2.92481,132.29813,19/03/2020 16:00,Rain,90
Kaimana,Papua Barat,Kabupaten Kaimana,Kaimana,Indonesia,-3.6635,133.7649,19/03/2020 16:00,Rain,86
Manokwari,Papua Barat,Kabupaten Manokwari,Manokwari,Indonesia,-0.86291,134.06402,19/03/2020 16:00,Rain,89
Ransiki,Papua Barat,Kabupaten Manokwari Selatan,Manokwari Selatan,Indonesia,-1.5083,134.1708,19/03/2020 16:00,Rain,97
Kumurkek,Papua Barat,Kabupaten Maybrat,Maybrat,Indonesia,-1.25667,132.49972,19/03/2020 16:00,Rain,97
Waisai,Papua Barat,Kabupaten Raja Ampat,Raja Ampat,Indonesia,-0.2379,130.5072,19/03/2020 16:00,Rain,73
Teminabuan,Papua Barat,Kabupaten Sorong Selatan,Sorong Selatan,Indonesia,-1.4416,132.01428,19/03/2020 16:00,Rain,90
Fef,Papua Barat,Kabupaten Tambrauw,Tambrauw,Indonesia,-0.80889,132.43222,19/03/2020 16:00,Rain,96
Bintuni,Papua Barat,Kabupaten Teluk Bintuni,Teluk Bintuni,Indonesia,-2.1084,133.537,19/03/2020 16:00,Rain,96
Rasiei,Papua Barat,Kabupaten Teluk Wondama,Teluk Wondama,Indonesia,-2.817,134.5292,19/03/2020 16:00,Rain,95
Teluk Kuantan,Riau,Kabupaten Kuantan Singingi,Kuantan Singingi,Indonesia,-0.5283,101.581,19/03/2020 16:00,Rain,84
Bagansiapiapi,Riau,Kabupaten Rokan Hilir,Rokan Hilir,Indonesia,2.15668,100.80763,19/03/2020 16:00,Broken clouds,46
Dumai,Riau,Kota Dumai,Dumai,Indonesia,1.66711,101.44316,19/03/2020 16:00,Rain,81
Pekanbaru,Riau,Kota Pekanbaru,Pekanbaru,Indonesia,0.5070677,101.4477793,19/03/2020 17:00,Rain,47
Bengkalis,Riau,Kabupaten Bengkalis,Bengkalis,Indonesia,1.46667,102.13333,19/03/2020 16:00,Clear sky,62
Tembilahan,Riau,Kabupaten Indragiri Hilir,Indragiri Hilir,Indonesia,-0.3227,103.1603,19/03/2020 16:00,Rain,71
Rengat,Riau,Kabupaten Indragiri Hulu,Indragiri Hulu,Indonesia,-0.37546,102.5481,19/03/2020 16:00,Rain,85
Bangkinang,Riau,Kabupaten Kampar,Kampar,Indonesia,0.33833,101.02361,19/03/2020 16:00,Rain,83
Selat Panjang,Riau,Kabupaten Kepulauan Meranti,Kepulauan Meranti,Indonesia,0.99408,102.70817,19/03/2020 16:00,Scattered clouds,57
Pangkalan Kerinci,Riau,Kabupaten Pelalawan,Pelalawan,Indonesia,0.39611,101.85722,19/03/2020 16:00,Broken clouds,51
Pasir Pengaraian,Riau,Kabupaten Rokan Hulu,Rokan Hulu,Indonesia,0.86459,100.29547,19/03/2020 16:00,Broken clouds,51
Siak Sri Indrapura,Riau,Kabupaten Siak,Siak,Indonesia,0.79317,102.0511,19/03/2020 16:00,Broken clouds,56
Majene,Sulawesi Barat,Kabupaten Majene,Majene,Indonesia,-3.5403,118.9707,19/03/2020 16:00,Rain,82
Mamasa,Sulawesi Barat,Kabupaten Mamasa,Mamasa,Indonesia,-2.942,119.3776,19/03/2020 16:00,Rain,98
Mamuju,Sulawesi Barat,Kabupaten Mamuju,Mamuju,Indonesia,-2.68056,118.88611,19/03/2020 16:00,Broken clouds,70
Tobadak,Sulawesi Barat,Kabupaten Mamuju Tengah,Mamuju Tengah,Indonesia,-2.08944,119.34722,19/03/2020 16:00,Rain,96
Polewali,Sulawesi Barat,Kabupaten Polewali Mandar,Polewali Mandar,Indonesia,-3.4324,119.3435,19/03/2020 16:00,Rain,91
Jeneponto,Sulawesi Selatan,Kabupaten Jeneponto,Jeneponto,Indonesia,-5.6765,119.7484,19/03/2020 16:00,Rain,84
Rappang,Sulawesi Selatan,Kabupaten Sidenreng Rappang,Sidenreng Rappang,Indonesia,-3.8445,119.8173,19/03/2020 16:00,Rain,88
Sinjai,Sulawesi Selatan,Kabupaten Sinjai,Sinjai,Indonesia,-5.1241,120.253,19/03/2020 16:00,Broken clouds,63
Watansoppeng,Sulawesi Selatan,Kabupaten Soppeng,Soppeng,Indonesia,-4.3522,119.8841,19/03/2020 16:00,Rain,93
Takalar,Sulawesi Selatan,Kabupaten Takalar,Takalar,Indonesia,-5.4258,119.4384,19/03/2020 16:00,Few clouds,83
Makale,Sulawesi Selatan,Kabupaten Tana Toraja,Tana Toraja,Indonesia,-3.1019,119.8539,19/03/2020 16:00,Rain,98
Rantepao,Sulawesi Selatan,Kabupaten Toraja Utara,Toraja Utara,Indonesia,-2.9701,119.8978,19/03/2020 16:00,Rain,98
Sengkang,Sulawesi Selatan,Kabupaten Wajo,Wajo,Indonesia,-4.1279,120.0297,19/03/2020 16:00,Rain,88
Makassar,Sulawesi Selatan,Kota Makassar,Makassar,Indonesia,-5.14861,119.43194,19/03/2020 16:00,Few clouds,88
Palopo,Sulawesi Selatan,Kota Palopo,Palopo,Indonesia,-2.9925,120.19694,19/03/2020 16:00,Rain,98
Parepare,Sulawesi Selatan,Kota Parepare,Pare-Pare,Indonesia,-4.0135,119.6255,19/03/2020 16:00,Rain,68
Bantaeng,Sulawesi Selatan,Kabupaten Bantaeng,Bantaeng,Indonesia,-5.5475,119.9509,19/03/2020 16:00,Few clouds,88
Barru,Sulawesi Selatan,Kabupaten Barru,Barru,Indonesia,-4.412,119.618,19/03/2020 16:00,Rain,67
Watampone,Sulawesi Selatan,Kabupaten Bone,Bone,Indonesia,-4.5386,120.3279,19/03/2020 16:00,Broken clouds,66
Bulukumba,Sulawesi Selatan,Kabupaten Bulukumba,Bulukumba,Indonesia,-5.55,120.18333,19/03/2020 16:00,Rain,84
Enrekang,Sulawesi Selatan,Kabupaten Enrekang,Enrekang,Indonesia,-3.56508,119.77025,19/03/2020 16:00,Rain,99
Sungguminasa,Sulawesi Selatan,Kabupaten Gowa,Gowa,Indonesia,-5.1971,119.451,19/03/2020 16:00,Few clouds,88
Benteng,Sulawesi Selatan,Kabupaten Kepulauan Selayar,Kepulauan Selayar,Indonesia,-6.1184,120.4605,19/03/2020 16:00,Few clouds,73
Belopa,Sulawesi Selatan,Kabupaten Luwu,Luwu,Indonesia,-3.3849,120.3676,19/03/2020 16:00,Rain,70
Malili,Sulawesi Selatan,Kabupaten Luwu Timur,Luwu Timur,Indonesia,-2.6351,121.0948,19/03/2020 16:00,Rain,92
Masamba,Sulawesi Selatan,Kabupaten Luwu Utara,Luwu Utara,Indonesia,-2.5537,120.3279,19/03/2020 16:00,Rain,94
Pangkajene,Sulawesi Selatan,Kabupaten Pangkajene dan Kepulauan,Pangkajene dan Kepulauan,Indonesia,-4.8372,119.5472,19/03/2020 16:00,Few clouds,88
Pinrang,Sulawesi Selatan,Kabupaten Pinrang,Pinrang,Indonesia,-3.78611,119.65222,19/03/2020 16:00,Rain,68
Luwuk,Sulawesi Tengah,Kabupaten Banggai,Banggai,Indonesia,-0.9516,122.7875,19/03/2020 16:00,Broken clouds,68
Salakan,Sulawesi Tengah,Kabupaten Banggai Kepulauan,Banggai Kepulauan,Indonesia,-1.3085,123.2909,19/03/2020 16:00,Rain,73
Banggai,Sulawesi Tengah,Kabupaten Banggai Laut,Banggai Laut,Indonesia,-1.5887,123.4992,19/03/2020 16:00,Rain,73
Buol,Sulawesi Tengah,Kabupaten Buol,Buol,Indonesia,1.1584,121.4361,19/03/2020 16:00,Rain,89
Bungku,Sulawesi Tengah,Kabupaten Morowali,Morowali,Indonesia,-2.5471,121.972,19/03/2020 16:00,Broken clouds,69
Kolonodale,Sulawesi Tengah,Kabupaten Morowali Utara,Morowali Utara,Indonesia,-1.9825,121.3364,19/03/2020 16:00,Rain,82
Poso,Sulawesi Tengah,Kabupaten Poso,Poso,Indonesia,-1.3959,120.7524,19/03/2020 16:00,Rain,88
Sigi Biromaru,Sulawesi Tengah,Kabupaten Sigi,Sigi,Indonesia,-0.94982,119.91805,19/03/2020 16:00,Rain,97
Ampana,Sulawesi Tengah,Kabupaten Tojo Una-Una,Tojo Una-Una,Indonesia,-0.86901,121.58367,19/03/2020 16:00,Broken clouds,80
Tolitoli,Sulawesi Tengah,Kabupaten Tolitoli,Toli-toli,Indonesia,1.0392,120.8169,19/03/2020 16:00,Rain,96
Palu,Sulawesi Tengah,Kota Palu,Palu,Indonesia,-0.90833,119.87083,19/03/2020 16:00,Rain,97
Parigi,Sulawesi Tengah,Kabupaten Parigi Moutong,Parigi Moutong,Indonesia,-7.7015,108.496,19/03/2020 16:00,Rain,87
Rumbia,Sulawesi Tenggara,Kabupaten Bombana,Bombana,Indonesia,-4.62767,122.00472,19/03/2020 16:00,Rain,89
Pasar Wajo,Sulawesi Tenggara,Kabupaten Buton,Buton,Indonesia,-5.4957,122.8447,19/03/2020 16:00,Broken clouds,70
Batauga,Sulawesi Tenggara,Kabupaten Buton Selatan,Buton Selatan,Indonesia,-5.5882,122.5964,19/03/2020 16:00,Broken clouds,70
Labungkari,Sulawesi Tenggara,Kabupaten Buton Tengah,Buton Tengah,Indonesia,-5.26318,122.55104,19/03/2020 16:00,Broken clouds,70
Buranga,Sulawesi Tenggara,Kabupaten Buton Utara,Buton Utara,Indonesia,-4.80098,122.98308,19/03/2020 16:00,Broken clouds,70
Kolaka,Sulawesi Tenggara,Kabupaten Kolaka,Kolaka,Indonesia,-4.0597,121.60556,19/03/2020 16:00,Rain,78
Lasusua,Sulawesi Tenggara,Kabupaten Kolaka Utara,Kolaka Utara,Indonesia,-3.5105,120.8844,19/03/2020 16:00,Rain,90
Unaaha,Sulawesi Tenggara,Kabupaten Konawe,Konawe,Indonesia,-3.8539,122.042,19/03/2020 16:00,Rain,89
Langara,Sulawesi Tenggara,Kabupaten Konawe Kepulauan,Konawe Kepulauan,Indonesia,-4.0248,122.9906,19/03/2020 16:00,Rain,72
Andoolo,Sulawesi Tenggara,Kabupaten Konawe Selatan,Konawe Selatan,Indonesia,-4.3273,122.2522,19/03/2020 16:00,Rain,70
Raha,Sulawesi Tenggara,Kabupaten Muna,Muna,Indonesia,-4.838,122.7209,19/03/2020 16:00,Rain,80
Kendari,Sulawesi Tenggara,Kota Kendari,Kendari,Indonesia,-3.9778,122.51507,19/03/2020 16:00,Rain,72
Lolak,Sulawesi Utara,Kabupaten Bolaang Mongondow,Bolaang Mongondow,Indonesia,0.8755,124.0098,19/03/2020 16:00,Rain,77
Molibagu,Sulawesi Utara,Kabupaten Bolaang Mongondow Selatan,Bolaang Mongondow Selatan,Indonesia,0.3862,123.9824,19/03/2020 16:00,Rain,91
Tutuyan,Sulawesi Utara,Kabupaten Bolaang Mongondow Timur,Bolaang Mongondow Timur,Indonesia,0.7654,124.6144,19/03/2020 16:00,Rain,95
Boroko,Sulawesi Utara,Kabupaten Bolaang Mongondow Utara,Bolaang Mongondow Utara,Indonesia,0.9083,123.2679,19/03/2020 16:00,Rain,76
Ondong Siau,Sulawesi Utara,Kabupaten Kepulauan Siau Tagulandang Biaro,Kepulauan Siau Tagulandang Biaro,Indonesia,2.7473,125.3611,19/03/2020 16:00,Broken clouds,77
Tondano,Sulawesi Utara,Kabupaten Minahasa,Minahasa,Indonesia,1.3054,124.91261,19/03/2020 16:00,Shower rain,83
Ratahan,Sulawesi Utara,Kabupaten Minahasa Tenggara,Minahasa Tenggara,Indonesia,1.0549,124.8012,19/03/2020 16:00,Rain,88
Airmadidi,Sulawesi Utara,Kabupaten Minahasa Utara,Minahasa Utara,Indonesia,1.42804,124.97774,19/03/2020 16:00,Rain,88
Bitung,Sulawesi Utara,Kota Bitung,Bitung,Indonesia,1.45697,125.1895,19/03/2020 16:00,Shower rain,83
Manado,Sulawesi Utara,Kota Manado,Manado,Indonesia,1.48218,124.84892,19/03/2020 12:00,Shower rain,83
Tomohon,Sulawesi Utara,Kota Tomohon,Tomohon,Indonesia,1.31678,124.80379,19/03/2020 16:00,Shower rain,83
Lubuk Basung,Sumatera Barat,Kabupaten Agam,Agam,Indonesia,-0.32545,100.06462,19/03/2020 16:00,Rain,75
Pulau Punjung,Sumatera Barat,Kabupaten Dharmasraya,Dharmasraya,Indonesia,-0.959,101.5002,19/03/2020 16:00,Rain,59
Tuapejat,Sumatera Barat,Kabupaten Kepulauan Mentawai,Kepulauan Mentawai,Indonesia,-2.02833,99.58944,19/03/2020 16:00,Rain,81
Sarilamak,Sumatera Barat,Kabupaten Lima Puluh Kota,Lima Puluh Kota,Indonesia,-0.1503,100.664,19/03/2020 16:00,Rain,91
Parit Malintang,Sumatera Barat,Kabupaten Padang Pariaman,Padang Pariaman,Indonesia,-0.62046,100.27885,19/03/2020 16:00,Rain,91
Lubuk Sikaping,Sumatera Barat,Kabupaten Pasaman,Pasaman,Indonesia,0.14411,100.1657,19/03/2020 16:00,Rain,93
Painan,Sumatera Barat,Kabupaten Pesisir Selatan,Pesisir Selatan,Indonesia,-1.35172,100.57383,19/03/2020 16:00,Rain,68
Sijunjung,Sumatera Barat,Kabupaten Sijunjung,Sijunjung,Indonesia,-0.7005,100.9774,19/03/2020 16:00,Rain,90
Arosuka,Sumatera Barat,Kabupaten Solok,Solok,Indonesia,-0.95221,100.621,19/03/2020 16:00,Rain,95
Padang Aro,Sumatera Barat,Kabupaten Solok Selatan,Solok Selatan,Indonesia,-1.52722,101.26361,19/03/2020 16:00,Rain,86
Batusangkar,Sumatera Barat,Kabupaten Tanah Datar,Tanah Datar,Indonesia,-0.4606,100.6107,19/03/2020 16:00,Rain,91
Bukittinggi,Sumatera Barat,Kota Bukittinggi,Bukittinggi,Indonesia,-0.30907,100.37055,19/03/2020 16:00,Rain,91
Padang,Sumatera Barat,Kota Padang,Padang,Indonesia,-0.94924,100.35427,19/03/2020 12:00,Rain,95
Kota Padang Panjang,Sumatera Barat,Kota Padangpanjang,Padang panjang,Indonesia,-0.45,100.43333,19/03/2020 16:00,Rain,91
Pariaman,Sumatera Barat,Kota Pariaman,Pariaman,Indonesia,-0.61898,100.11997,19/03/2020 16:00,Rain,75
Payakumbuh,Sumatera Barat,Kota Payakumbuh,Payakumbuh,Indonesia,-0.2159,100.6334,19/03/2020 16:00,Rain,91
Solok,Sumatera Barat,Kota Solok,Solok,Indonesia,-0.8006,100.6571,19/03/2020 16:00,Rain,95
Pangkalan Balai,Sumatera Selatan,Kabupaten Banyuasin,Banyuasin,Indonesia,-2.8812,104.3943,19/03/2020 16:00,Rain,86
Tebing Tinggi,Sumatera Selatan,Kabupaten Empat Lawang,Empat Lawang,Indonesia,-3.5842,103.0772,19/03/2020 16:00,Rain,79
Lahat,Sumatera Selatan,Kabupaten Lahat,Lahat,Indonesia,-3.78514,103.54279,19/03/2020 16:00,Rain,92
Muara Enim,Sumatera Selatan,Kabupaten Muara Enim,Muara Enim,Indonesia,-3.6486,103.771,19/03/2020 16:00,Rain,62
Sekayu,Sumatera Selatan,Kabupaten Musi Banyuasin,Musi Banyuasin,Indonesia,-2.8819,103.8344,19/03/2020 16:00,Rain,86
Muara Beliti,Sumatera Selatan,Kabupaten Musi Rawas,Musi Rawas,Indonesia,-3.2486,103.0335,19/03/2020 16:00,Rain,79
Muararupit,Sumatera Selatan,Kabupaten Musi Rawas Utara,Musi Rawas Utara,Indonesia,-2.7236,102.9108,19/03/2020 16:00,Rain,92
Indralaya,Sumatera Selatan,Kabupaten Ogan Ilir,Ogan Ilir,Indonesia,-3.25249,104.67555,19/03/2020 16:00,Rain,60
Kayu Agung,Sumatera Selatan,Kabupaten Ogan Komering Ilir,Ogan Komering Ilir,Indonesia,-3.392,104.8306,19/03/2020 16:00,Rain,90
Baturaja,Sumatera Selatan,Kabupaten Ogan Komering Ulu,Ogan Komering Ulu,Indonesia,-4.12891,104.16695,19/03/2020 16:00,Rain,72
Muara Dua,Sumatera Selatan,Kabupaten Ogan Komering Ulu Selatan,Ogan Komering Ulu Selatan,Indonesia,-4.53178,104.07397,19/03/2020 16:00,Rain,88
Talang Ubi,Sumatera Selatan,Kabupaten Penukal Abab Lematang Ilir,Penukal Abab Lematang Ilir,Indonesia,-3.2656,103.8253,19/03/2020 16:00,Rain,62
Lubuklinggau,Sumatera Selatan,Kota Lubuklinggau,Lubuklinggau,Indonesia,-3.2945,102.8614,19/03/2020 16:00,Rain,79
Pagar Alam,Sumatera Selatan,Kota Pagar Alam,Pagar Alam,Indonesia,-4.02506,103.24694,19/03/2020 16:00,Rain,92
Palembang,Sumatera Selatan,Kota Palembang,Palembang,Indonesia,-2.9760735,104.7754307,19/03/2020 14:00,Rain,90
Prabumulih,Sumatera Selatan,Kota Prabumulih,Prabumulih,Indonesia,-3.43447,104.23056,19/03/2020 16:00,Rain,62
Martapura,Sumatera Selatan,Kabupaten Ogan Komering Ulu Timur,Ogan Komering Ulu Timur,Indonesia,-3.4109,114.8642,19/03/2020 16:00,Rain,88
Kisaran,Sumatera Utara,Kabupaten Asahan,Asahan,Indonesia,2.9845,99.6158,19/03/2020 16:00,Rain,61
Limapuluh,Sumatera Utara,Kabupaten Batu Bara,Batu Bara,Indonesia,3.1689,99.4175,19/03/2020 16:00,Rain,61
Sidikalang,Sumatera Utara,Kabupaten Dairi,Dairi,Indonesia,2.74899,98.3127,19/03/2020 16:00,Rain,68
Lubuk Pakam,Sumatera Utara,Kabupaten Deli Serdang,Deli Serdang,Indonesia,3.5592,98.8733,19/03/2020 16:00,Scattered clouds,70
Dolok Sanggul,Sumatera Utara,Kabupaten Humbang Hasundutan,Humbang Hasundutan,Indonesia,2.2588,98.7501,19/03/2020 16:00,Rain,49
Kabanjahe,Sumatera Utara,Kabupaten Karo,Karo,Indonesia,3.1001,98.4908,19/03/2020 16:00,Scattered clouds,70
Rantau Prapat,Sumatera Utara,Kabupaten Labuhanbatu,Labuhanbatu,Indonesia,2.3321,100.05205,19/03/2020 16:00,Rain,58
Kota Pinang,Sumatera Utara,Kabupaten Labuhanbatu Selatan,Labuhanbatu Selatan,Indonesia,1.89076,100.09211,19/03/2020 16:00,Clear sky,43
Aek Kanopan,Sumatera Utara,Kabupaten Labuhanbatu Utara,Labuhanbatu Utara,Indonesia,2.5704,99.6534,19/03/2020 16:00,Rain,60
Stabat,Sumatera Utara,Kabupaten Langkat,Langkat,Indonesia,3.73335,98.45025,19/03/2020 16:00,Scattered clouds,70
Panyabungan,Sumatera Utara,Kabupaten Mandailing Natal,Mandailing Natal,Indonesia,1.93206,99.69113,19/03/2020 16:00,Rain,71
Teluk Dalam,Sumatera Utara,Kabupaten Nias Selatan,Nias Selatan,Indonesia,0.5729,97.8034,19/03/2020 16:00,Rain,88
Lotu,Sumatera Utara,Kabupaten Nias Utara,Nias Utara,Indonesia,1.4299,97.35365,19/03/2020 16:00,Rain,85
Sibuhuan,Sumatera Utara,Kabupaten Padang Lawas,Padang Lawas,Indonesia,1.05387,99.73018,19/03/2020 16:00,Rain,92
Gunung Tua,Sumatera Utara,Kabupaten Padang Lawas Utara,Padang Lawas Utara,Indonesia,1.51274,99.62628,19/03/2020 16:00,Rain,77
Salak,Sumatera Utara,Kabupaten Pakpak Bharat,Pakpak Bharat,Indonesia,2.5566,98.3235,19/03/2020 16:00,Rain,68
Pangururan,Sumatera Utara,Kabupaten Samosir,Samosir,Indonesia,2.6081,98.6961,19/03/2020 16:00,Rain,68
Sei Rampah,Sumatera Utara,Kabupaten Serdang Bedagai,Serdang Bedagai,Indonesia,3.4845,99.1366,19/03/2020 16:00,Scattered clouds,70
Pematang Raya,Sumatera Utara,Kabupaten Simalungun,Simalungun,Indonesia,2.9658,98.8473,19/03/2020 16:00,Scattered clouds,74
Sipirok,Sumatera Utara,Kabupaten Tapanuli Selatan,Tapanuli Selatan,Indonesia,1.60248,99.27377,19/03/2020 16:00,Rain,77
Pandan,Sumatera Utara,Kabupaten Tapanuli Tengah,Tapanuli Tengah,Indonesia,1.6838,98.822,19/03/2020 16:00,Rain,90
Tarutung,Sumatera Utara,Kabupaten Tapanuli Utara,Tapanuli Utara,Indonesia,2.01467,98.96548,19/03/2020 16:00,Rain,79
Balige,Sumatera Utara,Kabupaten Toba Samosir,Toba Samosir,Indonesia,2.3328,99.0657,19/03/2020 16:00,Rain,49
Binjai,Sumatera Utara,Kota Binjai,Binjai,Indonesia,3.6001,98.4854,19/03/2020 16:00,Scattered clouds,70
Gunungsitoli,Sumatera Utara,Kota Gunungsitoli,Gunungsitoli,Indonesia,1.2888,97.6143,19/03/2020 16:00,Rain,85
